iso3,city_ascii,lat,lng,capital,population,id
JPN,Tokyo,35.6897,139.6922,yes,37977000,1392685764
IDN,Jakarta,-6.2146,106.8451,yes,34540000,1360771077
IND,Delhi,28.66,77.23,no,29617000,1356872604
IND,Mumbai,18.9667,72.8333,no,23355000,1356226629
PHL,Manila,14.5958,120.9772,yes,23088000,1608618140
CHN,Shanghai,31.1667,121.4667,no,22120000,1156073548
BRA,Sao Paulo,-23.5504,-46.6339,no,22046000,1076532519
KOR,Seoul,37.5833,127,yes,21794000,1410836482
MEX,Mexico City,19.4333,-99.1333,yes,20996000,1484247881
CHN,Guangzhou,23.1288,113.259,no,20902000,1156237133
CHN,Beijing,39.905,116.3914,yes,19433000,1156228865
EGY,Cairo,30.0561,31.2394,yes,19372000,1818253931
USA,New York,40.6943,-73.9249,no,18713220,1840034016
IND,Kolkata,22.5411,88.3378,no,17560000,1356060520
RUS,Moscow,55.7558,37.6178,yes,17125000,1643318494
THA,Bangkok,13.75,100.5167,yes,17066000,1764068610
ARG,Buenos Aires,-34.5997,-58.3819,yes,16157000,1032717330
CHN,Shenzhen,22.535,114.054,no,15929000,1156158707
BGD,Dhaka,23.7161,90.3961,yes,15443000,1050529279
NGA,Lagos,6.45,3.4,no,15279000,1566593751
TUR,Istanbul,41.01,28.9603,no,15154000,1792756324
JPN,Osaka,34.6936,135.5019,no,14977000,1392419823
PAK,Karachi,24.86,67.01,no,14835000,1586129469
IND,Bangalore,12.9699,77.598,no,13707000,1356410365
IRN,Tehran,35.7,51.4167,yes,13633000,1364305026
COD,Kinshasa,-4.3317,15.3139,yes,13528000,1180000363
VNM,Ho Chi Minh City,10.8167,106.6333,no,13312000,1704774326
USA,Los Angeles,34.1139,-118.4068,no,12750807,1840020491
BRA,Rio de Janeiro,-22.9083,-43.1964,no,12272000,1076887657
CHN,Nanyang,32.9987,112.5292,no,12010000,1156192287
IND,Chennai,13.0825,80.275,no,11324000,1356374944
CHN,Chengdu,30.6636,104.0667,no,11309000,1156421555
PAK,Lahore,31.5497,74.3436,no,11021000,1586801463
FRA,Paris,48.8566,2.3522,yes,11020000,1250015082
GBR,London,51.5072,-0.1275,yes,10979000,1826645935
CHN,Linyi,35.0606,118.3425,no,10820000,1156086320
CHN,Tianjin,39.1467,117.2056,no,10800000,1156174046
CHN,Shijiazhuang,38.0422,114.5086,no,10784600,1156217541
CHN,Baoding,38.8671,115.4845,no,10700000,1156256829
CHN,Zhoukou,33.625,114.6418,no,9901000,1156272098
PER,Lima,-12.05,-77.0333,yes,9848000,1604728603
IND,Hyderabad,17.3667,78.4667,no,9746000,1356871768
COL,Bogota,4.6126,-74.0705,yes,9464000,1170483426
CHN,Weifang,36.7167,119.1,no,9373000,1156912965
JPN,Nagoya,35.1167,136.9333,no,9113000,1392407472
CHN,Wuhan,30.5872,114.2881,no,8962000,1156117184
CHN,Heze,35.2333,115.4333,no,8750000,1156225008
CHN,Ganzhou,25.8292,114.9336,no,8677600,1156832475
CHN,Tongshan,34.261,117.1859,no,8669000,1156241678
USA,Chicago,41.8373,-87.6862,no,8604203,1840000494
CHN,Handan,36.6116,114.4894,no,8499000,1156957080
AGO,Luanda,-8.8383,13.2344,yes,8417000,1024949724
CHN,Fuyang,32.8986,115.8045,no,8360000,1156248008
MYS,Kuala Lumpur,3.1478,101.6953,yes,8285000,1458988644
CHN,Jining,35.4,116.5667,no,8023000,1156504601
CHN,Dongguan,23.0475,113.7493,no,7981000,1156478242
VNM,Hanoi,21.0245,105.8412,yes,7785000,1704413791
IND,Pune,18.5196,73.8553,no,7764000,1356081074
CHN,Chongqing,29.55,106.5069,no,7739000,1156936556
CHN,Changchun,43.9,125.2,no,7674439,1156078103
CHN,Zhumadian,32.9773,114.0253,no,7640000,1156184822
CHN,Ningbo,29.875,121.5492,no,7639000,1156170787
NGA,Onitsha,6.1667,6.7833,no,7635000,1566593483
CHN,Nanjing,32.05,118.7667,no,7496000,1156644065
CHN,Hefei,31.8639,117.2808,no,7457027,1156332710
IND,Ahmadabad,23.03,72.58,no,7410000,1356304381
HKG,Hong Kong,22.305,114.185,no,7347000,1344982653
SDN,Khartoum,15.6031,32.5265,yes,7282000,1729268475
CHN,Nantong,31.9829,120.8873,no,7282835,1156045365
CHN,Yancheng,33.3936,120.1339,no,7260240,1156995410
CHN,Foshan,23.0292,113.1056,no,7194311,1156738403
CHN,Nanning,22.8192,108.315,no,7153300,1156605439
CHN,Hengyang,26.8968,112.5857,no,7148344,1156696884
CHN,Xi'an,34.2667,108.9,no,7135000,1156244079
CHN,Shenyang,41.8039,123.4258,no,7105000,1156309382
CHN,Tangshan,39.6292,118.1742,no,7100000,1156904299
CHN,Shaoyang,27.2418,111.4725,no,7071000,1156310366
CHN,Changsha,28.1987,112.9709,no,7044118,1156961497
CHL,Santiago,-33.45,-70.6667,yes,7007000,1152554349
CHN,Zhengzhou,34.7492,113.6605,no,7005000,1156183137
CHN,Zhanjiang,21.1967,110.4031,no,6900000,1156502170
SAU,Riyadh,24.65,46.71,yes,6881000,1682999334
CHN,Cangzhou,38.3037,116.8452,no,6800000,1156698069
TZA,Dar es Salaam,-6.8,39.2833,yes,6698000,1834843853
CHN,Maoming,21.6618,110.9178,no,6706000,1156568722
CHN,Huanggang,30.45,114.875,no,6667000,1156200037
CHN,Xinyang,32.1264,114.0672,no,6634000,1156273453
CHN,Shangrao,28.4419,117.9633,no,6579714,1156405492
CHN,Luoyang,34.6587,112.4245,no,6549941,1156069315
CHN,Bijie,27.3019,105.2863,no,6537498,1156018927
CHN,Yantai,37.3997,121.2664,no,6516900,1156932948
CHN,Quanzhou,24.9139,118.5858,no,6480000,1156829655
CHN,Hangzhou,30.25,120.1675,no,6446000,1156275243
USA,Miami,25.7839,-80.2102,no,6445545,1840015149
CHN,Kunming,25.0433,102.7061,no,6250000,1156477539
CHN,Nanchong,30.7991,106.0784,no,6183000,1156762337
CHN,Zunyi,27.705,106.9336,no,6127009,1156539782
CHN,Lu'an,31.7542,116.5078,no,6090000,1156499624
CHN,Yichun,27.8041,114.383,no,6048700,1156229590
CHN,Taizhou,28.6583,121.4221,no,5968838,1156322307
CHN,Liaocheng,36.45,115.9833,no,5955300,1156006600
CHN,Qujing,25.5102,103.8029,no,5855055,1156747998
CHN,Xiangyang,32.0654,112.1531,no,5844000,1156107325
IND,Surat,21.17,72.83,no,5807000,1356758738
IRQ,Baghdad,33.35,44.4167,yes,5796000,1368596238
CHN,Qingdao,36.1167,120.4,no,5775000,1156112588
SGP,Singapore,1.3,103.8,yes,5745000,1702341327
USA,Dallas,32.7936,-96.7662,no,5743938,1840019440
CHN,Changde,29.0397,111.6839,no,5717200,1156449091
CHN,Dazhou,31.2152,107.4947,no,5693000,1156834076
CHN,Suzhou,33.6333,116.9683,no,5690000,1156871297
USA,Philadelphia,40.0077,-75.1339,no,5649300,1840000673
CHN,Jieyang,23.5533,116.3649,no,5634000,1156260378
KEN,Nairobi,-1.2864,36.8172,yes,5545000,1404000661
CHN,Nangandao,35.2992,113.8851,no,5516000,1156127660
TUR,Ankara,39.93,32.85,yes,5503985,1792572891
CHN,Tai'an,36.2001,117.0809,no,5499000,1156095188
CHN,Yulin,22.6293,110.1507,no,5487368,1156901312
CHN,Dezhou,37.4513,116.3105,no,5470000,1156524080
USA,Houston,29.7863,-95.3889,no,5464251,1840020925
USA,Atlanta,33.7627,-84.4224,no,5449398,1840013660
MMR,Rangoon,16.8,96.15,yes,5430000,1104616656
CAN,Toronto,43.7417,-79.3733,no,5429524,1124279679
CHN,Suihua,46.6384,126.9808,no,5420000,1156235493
USA,Washington,38.9047,-77.0163,yes,5379184,1840006060
CHN,Qiqihar,47.3398,123.9512,no,5367003,1156775905
CHN,Jinhua,29.1046,119.6494,no,5361572,1156547188
RUS,Saint Petersburg,59.95,30.3167,no,5351935,1643616350
CHN,Shantou,23.3735,116.6941,no,5319028,1156457499
AUS,Sydney,-33.865,151.2094,no,5312163,1036074917
CHN,Weinan,34.4996,109.4684,no,5300000,1156903687
CHN,Suqian,33.9331,118.2831,no,5290000,1156212349
MEX,Guadalajara,20.6767,-103.3475,no,5253000,1484950208
CHN,Suzhou,31.304,120.6164,no,5250000,1156029196
CHN,Fuzhou,26.0769,119.2917,no,5245000,1156188037
CHN,Zhaotong,27.3328,103.7144,no,5213521,1156924687
CHN,Pudong,31.2231,121.5397,no,5187200,1156644508
CHN,Yongzhou,26.4515,111.5953,no,5180235,1156694479
BRA,Belo Horizonte,-19.8917,-43.9478,no,5159000,1076967355
CHN,Zhangzhou,24.5093,117.6612,no,5140000,1156241637
CHN,Bozhou,33.8626,115.7742,no,5100000,1156356860
AUS,Melbourne,-37.8136,144.9631,no,5078193,1036533631
CHN,Nanchang,28.6842,115.8872,no,5042565,1156198892
CHN,Xianyang,34.35,108.7167,no,5040000,1156120117
CHN,Taizhou,32.4831,119.9,no,5031000,1156119229
IDN,Surabaya,-7.2458,112.7378,no,4975000,1360484663
CIV,Abidjan,5.3364,-4.0267,yes,4980000,1384207980
CHN,Ji'an,27.1172,114.9793,no,4956600,1156278215
CHN,Mianyang,31.4669,104.7385,no,4945000,1156417758
CHN,Shaoxing,30,120.5833,no,4912239,1156893449
EGY,Alexandria,31.2,29.9167,no,4870000,1818695837
CHN,Yuncheng,35.0304,110.998,no,4860000,1156705644
CHN,Pingdingshan,33.735,113.2999,no,4838000,1156735124
CHN,Huai'an,33.5,119.1331,no,4799889,1156634228
CHN,Xinpu,34.5906,119.1801,no,4790000,1156035381
CHN,Guilin,25.2667,110.2833,no,4747963,1156235364
CHN,Huaihua,27.5494,109.9592,no,4741948,1156353465
CHN,Jiujiang,29.7048,116.0021,no,4728778,1156206041
CHN,Anqing,30.5,117.0333,no,4723000,1156238875
USA,Boston,42.3188,-71.0846,no,4688346,1840000455
CHN,Huanglongsi,34.7936,114.3403,no,4676159,1156198356
CHN,Xiaoganzhan,30.9273,113.911,no,4665000,1156002290
CHN,Changzhou,31.8122,119.9692,no,4592431,1156185511
ESP,Barcelona,41.3825,2.1769,no,4588000,1724594040
CHN,Chenzhou,25.7989,113.0267,no,4581778,1156291915
CHN,Wuxi,31.5667,120.2833,no,4580000,1156019650
CHN,Zibo,36.7831,118.0497,no,4530597,1156381094
CHN,Jiaxing,30.7522,120.75,no,4501657,1156491661
CHN,Dalian,38.9131,121.61,no,4480000,1156175472
CHN,Harbin,45.75,126.6333,no,4458000,1156241528
CHN,Yangzhou,32.3912,119.4363,no,4459000,1156818601
CHN,Yibin,28.7596,104.64,no,4456000,1156107603
CHN,Jiangmen,22.5833,113.0833,no,4448871,1156105613
ZAF,Johannesburg,-26.2044,28.0416,no,4434827,1710550792
CHN,Meizhou,24.2998,116.1191,no,4378800,1156361028
CHN,Chifeng,42.2663,118.9223,no,4376600,1156277458
MAR,Casablanca,33.5992,-7.62,no,4370000,1504175315
CHN,Guiyang,26.5794,106.7078,no,4365000,1156932620
CHN,Langfang,39.5196,116.7006,no,4358839,1156109017
CHN,Zhangjiakou,40.8108,114.8811,no,4345491,1156800221
TUR,Izmir,38.4127,27.1384,no,4320519,1792725579
CHN,Linfen,36.0812,111.5087,no,4316610,1156416074
CHN,Wenzhou,27.9991,120.6561,no,4310000,1156188829
MEX,Monterrey,25.6667,-100.3,no,4295000,1484559591
CHN,Luzhou,28.8918,105.4409,no,4291000,1156582079
CHN,Jiangguanchi,34.0244,113.8201,no,4289000,1156235735
CHN,Neijiang,29.5872,105.0635,no,4238000,1156516335
USA,Phoenix,33.5722,-112.0891,no,4219697,1840020568
CHN,Yanjiang,30.1256,104.6397,no,4217000,1156217114
CHN,Yiyang,28.5833,112.3333,no,4174000,1156218615
CHN,Zhaoqing,23.047,112.465,no,4151700,1156170144
CHN,Hengshui,37.7348,115.686,no,4150000,1156803028
CHN,Guigang,23.0961,109.6092,no,4118808,1156895251
CHN,Xiaoxita,30.7083,111.2803,no,4115000,1156764447
CHN,Xiamen,24.4797,118.0819,no,4110000,1156212809
CHN,Chuzhou,32.3062,118.3115,no,4110000,1156036420
CHN,Fuzhou,27.9814,116.3577,no,4047200,1156915325
JOR,Amman,31.95,35.9333,yes,4007526,1400522593
SAU,Jeddah,21.5428,39.1728,no,3976000,1682926944
PAK,Sialkot City,32.5,74.5333,no,3893672,1586141444
CHN,Huizhou,23.1115,114.4152,no,3875000,1156203268
CHN,Qingyuan,23.6842,113.0507,no,3874000,1156135890
CHN,Zhuzhou,27.8407,113.1469,no,3855609,1156041962
CHN,Wuhu,31.334,118.3622,no,3842100,1156315512
CHN,Hechi,23.0965,109.6091,no,3830000,1156868701
USA,Seattle,47.6211,-122.3244,no,3789215,1840021117
CHN,Loudi,27.7378,111.9974,no,3785627,1156010654
CHN,Binzhou,37.3806,118.0125,no,3779200,1156564962
CHN,Liuzhou,24.3181,109.4069,no,3758704,1156360785
JPN,Yokohama,35.4333,139.6333,no,3748781,1392118339
CHN,Baojishi,34.3609,107.1751,no,3738700,1156101096
CHN,Guang'an,30.4673,106.6336,no,3723000,1156377302
CHN,Hanzhong,33.0794,107.026,no,3700000,1156382678
AFG,Kabul,34.5328,69.1658,yes,3678034,1004993580
CHN,Zaozhuang,34.8667,117.55,no,3650000,1156796454
DEU,Berlin,52.5167,13.3833,yes,3644826,1276451290
CHN,Anshan,41.1066,122.9895,no,3645884,1156901825
CHN,Deyang,31.1289,104.395,no,3636000,1156127147
CHN,Lanzhou,36.0617,103.8318,no,3616163,1156280566
CHN,Chengde,40.9739,117.9322,no,3610000,1156197800
USA,San Francisco,37.7562,-122.443,no,3592294,1840021543
CHN,Puyang,35.7639,115.03,no,3580000,1156431924
CHN,Suining,30.5098,105.5737,no,3556000,1156655650
CHN,Jiaozuo,35.229,113.2304,no,3540101,1156157854
CHN,Bengbu,32.9354,117.3531,no,3525000,1156440668
CAN,Montreal,45.5089,-73.5617,no,3519595,1124586170
USA,Detroit,42.3834,-83.1024,no,3506126,1840003971
CHN,Baicheng,23.901,106.6194,no,3466758,1156981113
KOR,Busan,35.1,129.0403,no,3440484,1410601465
DZA,Algiers,36.7764,3.0586,yes,3415811,1012973369
CHN,Qincheng,34.5809,105.7311,no,3400000,1156104017
CHN,Taiyuan,37.8733,112.5425,no,3398000,1156632014
IND,Lucknow,26.847,80.947,no,3382000,1356891790
CHN,Chaoyang,41.5757,120.4486,no,3370000,1156706927
CHN,Hechi,24.6928,108.085,no,3369251,1156167204
CHN,Leshan,29.5854,103.7575,no,3364000,1156203130
CHN,Yulinshi,38.2655,109.7388,no,3328000,1156280672
CHN,Siping,43.1715,124.3644,no,3300000,1156063295
ESP,Madrid,40.4189,-3.6919,yes,3266126,1724616994
CHN,Jinan,36.6667,116.9833,no,3250000,1156972469
CHN,Shiyan,32.6351,110.7755,no,3228000,1156383921
CHN,Changzhi,36.1953,113.097,no,3230000,1156057944
USA,San Diego,32.8312,-117.1225,no,3220118,1840021990
PAK,Faisalabad,31.418,73.079,no,3203846,1586323916
BOL,Santa Cruz,-17.7892,-63.1975,no,3151676,1068129363
CHN,Bazhou,31.8576,106.7559,no,3134000,1156271365
CHN,Zhongshan,22.5333,113.35,no,3121275,1156579621
CHN,Zhenjiang,32.2109,119.4551,no,3113384,1156934125
CHN,Urumqi,43.825,87.6,no,3112559,1156051276
CHN,Tongliao,43.6172,122.264,no,3094600,1156358686
CHN,Heyuan,23.7503,114.6923,no,3093900,1156665165
CHN,Tongren,27.7233,109.1885,no,3093204,1156803442
CHN,Qinzhou,21.95,108.6167,no,3079721,1156106602
IND,Jaipur,26.9167,75.8667,no,3073350,1356293537
CHN,Xinzhou,38.4178,112.7233,no,3067501,1156617534
ETH,Addis Ababa,9.0272,38.7369,yes,3041002,1231824991
EGY,Giza,29.987,31.2118,no,3021542,1818925479
CHN,Meishan,30.0575,103.8381,no,3020000,1156185501
BRA,Brasilia,-15.7744,-48.0773,yes,3015268,1076144436
IRN,Mashhad,36.3069,59.6042,no,3001184,1364123206
CHN,Jinzhou,41.1144,121.1292,no,3000000,1156157151
CHN,Tieling,42.2841,123.8365,no,3000000,1156089994
CHN,Shaoguan,24.8011,113.5927,no,2997600,1156617066
CHN,Shanwei,22.7664,115.3331,no,2990000,1156939010
USA,Minneapolis,44.9635,-93.2678,no,2977172,1840007830
UKR,Kyiv,50.45,30.5236,yes,2967000,1804382913
YEM,Sanaa,15.35,44.2,yes,2957000,1887750814
PHL,Quezon City,14.6333,121.0333,no,2936116,1608974097
CHN,Dingxi,35.5806,104.6263,no,2930000,1156518274
BRA,Salvador,-12.9708,-38.5108,no,2921087,1076923789
KOR,Incheon,37.4639,126.6486,no,2913024,1410160313
TUR,Bursa,40.1833,29.0667,no,2901396,1792903330
CHN,Ningde,26.6667,119.5167,no,2910000,1156909802
USA,Tampa,27.9942,-82.4451,no,2908063,1840015982
CHN,Daqing,46.5979,125.008,no,2904532,1156403962
GBR,Birmingham,52.48,-1.9025,no,2897303,1826423213
CHN,Putian,25.4394,119.0103,no,2900000,1156811601
CHN,Huzhou,30.8695,120.0958,no,2893542,1156335543
CHN,Wuzhou,23.4833,111.3167,no,2882200,1156620133
USA,Denver,39.7621,-104.8759,no,2876625,1840018789
ITA,Rome,41.8931,12.4828,yes,2872800,1380382862
BOL,La Paz,-16.4942,-68.1475,yes,2867504,1068000064
PRK,Pyongyang,39.03,125.73,yes,2863000,1408738594
NGA,Kano,12,8.5167,no,2828861,1566422868
TWN,Taichung,24.15,120.6667,no,2803894,1158689622
SDN,Omdurman,15.6835,32.4629,no,2805396,1729912179
CHN,Zigong,29.3498,104.7645,no,2800000,1156023354
CHN,Qinhuangdao,39.9398,119.5881,no,2800000,1156091093
CHN,Mudanjiang,44.5861,129.5997,no,2790000,1156249698
CHN,Huludao,40.7094,120.8378,no,2787000,1156580218
TWN,Kaohsiung,22.6167,120.3,no,2773533,1158331334
CHN,Xiangtan,27.8431,112.9228,no,2748552,1156195684
ECU,Guayaquil,-2.1833,-79.8833,no,2723665,1218802178
CHN,Rizhao,35.4164,119.4331,no,2720000,1156032841
GBR,Manchester,53.4794,-2.2453,no,2705000,1826246335
IND,Cawnpore,26.4725,80.3311,no,2701324,1356575238
CHN,Baotou,40.6562,109.8345,no,2700000,1156032751
TWN,Taipei,25.0478,121.5319,yes,2684567,1158881289
CHN,Nanping,26.6448,118.1728,no,2690000,1156927445
CHN,Longyan,25.0881,117.0244,no,2640000,1156012979
NGA,Ibadan,7.3964,3.9167,no,2628000,1566366407
CHN,Hohhot,40.8151,111.6629,no,2635000,1156210167
CHN,Chaozhou,23.67,116.63,no,2620000,1156549118
MDG,Antananarivo,-18.9386,47.5214,yes,2610000,1450978461
CHN,Longba,33.535,105.349,no,2614000,1156633259
CHN,Weihai,37.5,122.1,no,2596753,1156473300
BGD,Chattogram,22.335,91.8325,no,2581643,1050830722
DOM,Santo Domingo,18.4764,-69.8933,yes,2581827,1214636202
CHN,Xuanzhou,30.9475,118.7518,no,2580000,1156424311
CHN,Sanming,26.2658,117.6302,no,2580000,1156294429
USA,Brooklyn,40.6501,-73.9496,no,2559903,1840034030
COL,Medellin,6.2447,-75.5748,no,2529403,1170680389
AUS,Brisbane,-27.4678,153.0281,no,2514184,1036192929
CHN,Baoshan,25.1211,99.169,no,2506491,1156546994
ARE,Dubai,25.2697,55.3094,no,2502715,1784736618
CHN,Luohe,33.583,114.0109,no,2500000,1156330876
CHN,Qinbaling,35.7278,107.64,no,2500000,1156032582
IND,Mirzapur,25.15,82.58,no,2496970,1356427908
CHN,Guangyuan,32.4353,105.8398,no,2484122,1156084562
COL,Cali,3.44,-76.5197,no,2471474,1170417589
KOR,Daegu,35.8667,128.6,no,2461002,1410095252
BRA,Fortaleza,-3.7275,-38.5275,no,2452185,1076567885
GTM,Guatemala City,14.6099,-90.5252,yes,2450212,1320197916
CMR,Yaounde,3.8578,11.5181,yes,2440462,1120298240
CMR,Douala,4.05,9.7,no,2446945,1120494607
CHN,Jilin,43.85,126.55,no,2396000,1156646448
CHN,Lianshan,40.7503,120.83,no,2426000,1156046704
CHN,Lincang,23.8864,100.0871,no,2429497,1156044130
TUR,Antalya,36.9081,30.6956,no,2426356,1792988434
UZB,Tashkent,41.3,69.2667,yes,2424100,1860331871
CHN,Huangshi,30.2018,115.0326,no,2419000,1156234290
IDN,Bandung,-6.95,107.5667,no,2394873,1360313023
IND,Nagpur,21.1539,79.0831,no,2405665,1356365743
CHN,Dandong,40.1167,124.3833,no,2400000,1156178316
CHN,Huainan,32.4831,117.0164,no,2409000,1156877299
CHN,Shangzhou,33.868,109.9244,no,2400000,1156091241
IDN,Bekasi,-6.2333,107,no,2381053,1360006015
IND,Ghaziabad,28.6667,77.4167,no,2381452,1356691871
MEX,Tijuana,32.525,-117.0333,no,2384609,1484708778
CHN,Jiamusi,46.8081,130.3653,no,2360000,1156350864
CHN,Yangjiang,21.8556,111.9627,no,2357000,1156123172
GHA,Accra,5.6037,-0.187,yes,2291352,1288299415
CHN,Yuxi,24.3495,102.5432,no,2303518,1156682309
CHN,Fushun,41.8708,123.8917,no,2300000,1156857743
CHN,Anshun,26.2456,105.934,no,2297612,1156415948
CAN,Vancouver,49.25,-123.1,no,2264823,1124825478
IDN,Tangerang,-6.1783,106.6319,no,2237006,1360002844
TUR,Konya,37.8714,32.4847,no,2232374,1792014004
USA,Queens,40.7498,-73.7976,no,2230722,1840034002
CHN,Yingkou,40.6653,122.2297,no,2220000,1156257074
TUR,Adana,37,35.325,no,2220125,1792783772
IDN,Medan,3.6667,98.6667,no,2210625,1360543171
CHN,Sanmenxia,34.7736,111.195,no,2213000,1156529682
IND,Indore,22.7206,75.8472,no,2201927,1356402812
CHN,Ma'anshan,31.7135,118.3605,no,2202899,1156847452
CHN,Pingliang,35.5412,106.6819,no,2190000,1156216904
CHN,Quzhou,28.9545,118.8763,no,2185000,1156180376
AZE,Baku,40.3667,49.8352,yes,2181800,1031946365
CHN,Gaoping,30.7804,106.13,no,2174000,1156522457
CHN,Huaibei,33.9562,116.789,no,2158000,1156142626
CHN,Xining,36.6239,101.7787,no,2154000,1156081448
CHN,Yan'an,36.5952,109.4863,no,2150000,1156546342
CUB,Havana,23.1367,-82.3589,yes,2141652,1192752771
KHM,Phnom Penh,11.5696,104.921,yes,2129371,1116260534
JPN,Fukuoka,33.5903,130.4019,no,2128000,1392576294
SOM,Mogadishu,2.0408,45.3425,yes,2120000,1706893395
CHN,Jincheng,35.4906,112.8483,no,2120000,1156163376
CHN,Lishui,28.45,119.9167,no,2116957,1156858793
CHN,Qingyang,24.8141,118.5792,no,2111000,1156273372
USA,Riverside,33.9381,-117.3948,no,2107852,1840020551
USA,Baltimore,39.3051,-76.6144,no,2106068,1840001592
VNM,Haiphong,20.8,106.6667,no,2103500,1704000623
USA,Las Vegas,36.2333,-115.2654,no,2104198,1840020364
CHN,Laibin,23.7333,109.2333,no,2099711,1156925734
PAK,Rawalpindi,33.6007,73.0679,no,2098231,1586344001
GHA,Kumasi,6.6833,-1.6167,no,2069350,1288181103
USA,Portland,45.5372,-122.65,no,2074775,1840019941
IND,Vadodara,22.3,73.2,no,2065771,1356705249
AUS,Perth,-31.9522,115.8589,no,2059484,1036178956
CHN,Puning,23.2993,116.1586,no,2055552,1156756494
USA,San Antonio,29.4658,-98.5253,no,2049293,1840022220
CHN,Haikou,20.02,110.32,no,2046189,1156183327
IND,Vishakhapatnam,17.7333,83.3167,no,2035922,1356692563
TUR,Gaziantep,37.0667,37.3833,no,2028563,1792911843
BLR,Minsk,53.9022,27.5618,yes,2020600,1112348503
USA,St. Louis,38.6358,-90.2451,no,2024074,1840001651
MLI,Bamako,12.6458,-7.9922,yes,2009109,1466965925
ECU,Quito,-0.2186,-78.5097,yes,2011388,1218441993
CHN,Pingxiang,27.6333,113.85,no,2001027,1156066465
CHN,Chongzuo,22.4167,107.3667,no,1994285,1156438670
TUR,Sanliurfa,37.1583,38.7917,no,1985753,1792937570
COD,Kananga,-5.897,22.4488,no,1971704,1180172460
PAK,Peshawar,34,71.5,no,1970042,1586851102
JPN,Sapporo,43.0621,141.3544,no,1958756,1392000195
CHN,Jixi,45.2937,130.965,no,1950000,1156393765
VEN,Caracas,10.5,-66.9333,yes,1943901,1862748204
CHN,Fuxin,42.0127,121.6486,no,1930000,1156141954
GBR,Leeds,53.7997,-1.5492,no,1901934,1826343963
USA,Sacramento,38.5667,-121.4683,no,1898019,1840021491
MWI,Blantyre,-15.7861,35.0058,no,1895973,1454145012
TWN,Tainan,22.9833,120.1833,no,1883831,1158061376
ROU,Bucharest,44.4,26.0833,yes,1883425,1642414442
CHN,Wuwei,37.9278,102.6329,no,1890000,1156760291
IND,Bhopal,23.25,77.4167,no,1883381,1356734039
BRA,Curitiba,-25.4297,-49.2719,no,1879355,1076701712
CHN,Xiping,40.08,113.3,no,1873000,1156898522
PRY,Asuncion,-25.3,-57.6333,yes,1870000,1600057911
PAK,Saidu Sharif,34.75,72.3572,no,1860310,1586619596
AUT,Vienna,48.2083,16.3731,yes,1840573,1040261752
SYR,Aleppo,36.2,37.15,no,1834093,1760366651
DEU,Hamburg,53.55,10,no,1841179,1276041799
KEN,Meru,0.05,37.65,no,1833000,1404588252
COG,Brazzaville,-4.2667,15.2833,yes,1827000,1178340306
USA,Orlando,28.4772,-81.3369,no,1822394,1840015099
TUR,Mersin,36.8,34.6167,no,1814468,1792520282
KAZ,Almaty,43.25,76.9,no,1806833,1398351701
COL,Barranquilla,10.96,-74.8,no,1798000,1170179113
JPN,Kyoto,35.0111,135.7669,no,1805000,1392622735
BRA,Manaus,-3.1,-60.0167,no,1802014,1076607274
CHN,Liaoyang,41.2643,123.1772,no,1800000,1156202749
CHN,Baiyin,36.5448,104.1766,no,1799000,1156140738
USA,San Jose,37.3019,-121.8486,no,1798103,1840021570
POL,Warsaw,52.2167,21.0333,yes,1790658,1616024847
CHN,Shengli,37.45,118.4667,no,1790000,1156672254
COD,Lubumbashi,-11.6697,27.4581,no,1786397,1180506234
SYR,Damascus,33.5131,36.2919,yes,1754000,1760685964
CHN,Shuyangzha,34.1299,118.7734,no,1770000,1156051957
CHN,Shangqiu,34.4504,115.65,no,1753000,1156805441
IRN,Esfahan,32.6447,51.6675,no,1756126,1364023865
HUN,Budapest,47.4983,19.0408,yes,1752286,1348611435
CHN,Heihe,50.2458,127.4886,no,1750000,1156339225
ZMB,Lusaka,-15.4167,28.2833,yes,1742979,1894157390
TUR,Diyarbakir,37.9108,40.2367,no,1732396,1792536241
IND,Chinchvad,18.6278,73.8131,no,1729320,1356475483
CHN,Shuozhou,39.3408,112.4292,no,1714857,1156227167
BRA,Vitoria,-20.324,-40.366,no,1704000,1076376829
USA,Cleveland,41.4767,-81.6804,no,1710093,1840000596
USA,Pittsburgh,40.4396,-79.9762,no,1703266,1840001254
SAU,Mecca,21.4225,39.8261,no,1700000,1682169241
IND,Patna,25.61,85.1414,no,1684222,1356821429
IRQ,Mosul,36.3667,43.1167,no,1694000,1368194914
USA,Austin,30.3004,-97.7522,no,1687311,1840019590
CHN,Sanzhou,30.82,108.4,no,1680000,1156025536
GIN,Conakry,9.5092,-13.7122,yes,1667864,1324568159
UGA,Kampala,0.3136,32.5811,yes,1659600,1800406299
MEX,Ecatepec,19.6097,-99.06,no,1656107,1484003694
USA,Cincinnati,39.1413,-84.5061,no,1662691,1840003814
IDN,Makassar,-5.1331,119.4136,no,1651146,1360051337
CHN,Yushan,31.3867,120.9766,no,1651200,1156245000
IND,Ludhiana,30.9083,75.8486,no,1649000,1356929498
GBR,Newcastle,55.0077,-1.6578,no,1650000,1826292220
IDN,Depok,-6.394,106.8225,no,1631951,1360962899
TWN,Zhongli,24.965,121.2168,no,1632616,1158025380
USA,Kansas City,39.1239,-94.5541,no,1636715,1840008535
MAR,Rabat,34.0253,-6.8361,yes,1628000,1504023252
BFA,Ouagadougou,12.3572,-1.5353,yes,1626950,1854029208
PHL,Davao,7.0667,125.6,no,1632991,1608906877
USA,Manhattan,40.7834,-73.9662,no,1628706,1840034000
IDN,Semarang,-6.9667,110.4167,no,1621384,1360745537
CHN,Yinchuan,38.4795,106.2254,no,1616000,1156359072
PAK,Multan,30.1978,71.4711,no,1606481,1586256291
PHL,Caloocan City,14.65,120.9667,no,1583978,1608897690
ZWE,Harare,-17.8292,31.0522,yes,1606000,1716196799
RUS,Novosibirsk,55.0333,82.9167,no,1602915,1643399240
CHN,Chengtangcun,35.0833,117.15,no,1603659,1156883901
IND,Agra,27.18,78.02,no,1585705,1356187395
IRN,Karaj,35.8327,50.9915,no,1592492,1364258511
USA,Indianapolis,39.7771,-86.1458,no,1588961,1840030084
CHN,Jingdezhen,29.2942,117.2036,no,1587477,1156038165
MEX,Puebla,19.0333,-98.1833,no,1576259,1484416394
IND,Kalyan,19.2502,73.1602,no,1576614,1356172246
IND,Madurai,9.9197,78.1194,no,1561129,1356257289
PAK,Gujranwala,32.15,74.1833,no,1569090,1586400472
CHN,Benxi,41.292,123.761,no,1567000,1156097909
IND,Jamshedpur,22.8,86.1833,no,1558000,1356501259
CHN,Zhuhai,22.2769,113.5678,no,1562000,1156722242
BRA,Recife,-8.0539,-34.8808,no,1555039,1076137337
USA,Columbus,39.9862,-82.985,no,1562009,1840003760
IRN,Tabriz,38.0833,46.2833,no,1558693,1364141756
DOM,Santiago,19.5,-70.67,no,1550753,1214985348
VEN,Maracaibo,10.6333,-71.6333,no,1551539,1862072711
CHN,Beihai,21.4667,109.1,no,1539251,1156421449
CHN,Shuangyashan,46.6388,131.1545,no,1530000,1156245904
JPN,Kobe,34.6913,135.183,no,1522944,1392978082
USA,Charlotte,35.208,-80.8304,no,1512923,1840014557
CHN,Yucheng,29.9888,103.0007,no,1512000,1156817119
CHN,Changshu,31.65,120.7333,no,1510100,1156901538
CHN,Ximeicun,24.9633,118.3811,no,1508000,1156173813
CHN,Jianguang,28.1958,115.7833,no,1507402,1156545200
KOR,Gwangju,35.1667,126.9167,no,1501557,1410000087
CHN,Xushan,30.1697,121.2665,no,1502000,1156046916
CHN,Guiping,23.4,110.0833,no,1496904,1156165517
IND,Nasik,20,73.7833,no,1486053,1356562598
BRA,Porto Alegre,-30.0328,-51.23,no,1484941,1076658221
CHN,Zhangjiajie,29.1255,110.4844,no,1486000,1156072884
VEN,Valencia,10.1667,-68,no,1484430,1862309871
USA,Virginia Beach,36.7335,-76.0435,no,1478868,1840003871
KOR,Daejeon,36.351,127.385,no,1475221,1410993875
DEU,Munich,48.1372,11.5755,no,1471508,1276692352
RUS,Yekaterinburg,56.8356,60.6128,no,1468833,1643582706
NZL,Auckland,-36.85,174.7833,no,1467800,1554435911
CHN,Yunfu,22.9242,112.0353,no,1470000,1156057251
CHN,Huangshan,29.7132,118.3151,no,1470000,1156527426
CHN,Huazhou,32.6832,112.079,no,1468061,1156796734
IRN,Shiraz,29.61,52.5425,no,1460665,1364432238
MEX,Leon de los Aldama,21.1167,-101.6833,no,1454793,1484811199
CHN,Pizhou,34.3422,118.0097,no,1458038,1156114238
IDN,Palembang,-2.9833,104.7644,no,1452456,1360902897
UKR,Kharkiv,50,36.2292,no,1446107,1804588111
JPN,Kawanakajima,35.53,139.705,no,1437266,1392879600
CHN,Lianjiang,21.6146,110.2794,no,1443099,1156944106
CHN,Chizhou,30.6583,117.4849,no,1430000,1156131504
CHN,Leizhou,20.9147,110.0806,no,1427664,1156863840
CHN,Guyuan,36.008,106.2782,no,1426000,1156817541
CHN,Rui'an,27.778,120.6526,no,1424667,1156993705
GBR,Birstall,52.6736,-1.12,no,1424216,1826141026
OMN,Muscat,23.6139,58.5922,yes,1421409,1512035506
CHN,Hebi,35.7497,114.2887,no,1419000,1156114258
CHN,Jingling,30.6667,113.1667,no,1418913,1156060544
USA,Bronx,40.8501,-73.8662,no,1418207,1840033999
NLD,The Hague,52.08,4.27,yes,1406000,1528799905
NGA,Owerri,5.4833,7.0333,no,1401873,1566679132
ARE,Sharjah,25.3575,55.3919,no,1400000,1784152993
IND,Faridabad,28.4333,77.3167,no,1394000,1356013205
MNG,Ulaanbaatar,47.9203,106.9172,yes,1396288,1496024767
BRA,Goiania,-16.6789,-49.2539,no,1393575,1076034054
BRA,Belem,-1.4558,-48.5039,no,1393399,1076646823
TUR,Kayseri,38.7333,35.4833,no,1389680,1792945815
CHN,Yueqing,28.1188,120.9621,no,1389332,1156900058
SRB,Belgrade,44.8167,20.4667,yes,1378682,1688374696
CHN,Pingdu,36.7833,119.9556,no,1378900,1156157078
IND,Aurangabad,19.88,75.32,no,1371330,1356840670
CHN,Yutan,28.3147,112.554,no,1368117,1156592042
CHN,Wenling,28.3797,121.3718,no,1366794,1156052493
PAK,Islamabad,33.6989,73.0369,yes,1365000,1586306717
USA,Milwaukee,43.0642,-87.9673,no,1365787,1840003046
ITA,Milan,45.4669,9.19,no,1351562,1380724377
BGR,Sofia,42.6975,23.3241,yes,1355142,1100762037
AUS,Adelaide,-34.9289,138.6011,no,1345777,1036538171
TUR,Samsun,41.2867,36.33,no,1335716,1792169057
IND,Rajkot,22.2969,70.7984,no,1335397,1356317190
BGD,Khulna,22.8167,89.55,no,1311100,1050667339
ARG,Cordoba,-31.4167,-64.1833,no,1329604,1032803249
BRA,Guarulhos,-23.4667,-46.5333,no,1324781,1076730420
MEX,Juarez,31.7386,-106.487,no,1321004,1484840083
CZE,Prague,50.0833,14.4167,yes,1324277,1203744823
URY,Montevideo,-34.8667,-56.1667,yes,1319108,1858107000
COD,Mbuji-Mayi,-6.1209,23.5967,no,1295000,1180399586
CHN,Fuqing,25.7232,119.3735,no,1316000,1156893569
CHN,Xintai,35.91,117.78,no,1315942,1156761230
QAT,Doha,25.3,51.5333,yes,1312947,1634459660
JPN,Saitama,35.8617,139.6453,no,1307931,1392017719
JPN,Hiroshima,34.3853,132.4553,no,1306589,1392373695
IND,Meerut,28.99,77.7,no,1305429,1356390476
CHN,Yushu,44.8249,126.5451,no,1304436,1156326773
CHN,Rongcheng,26.2312,104.0966,no,1302891,1156122888
CHN,Yangquan,37.8576,113.5762,no,1300000,1156157844
CHN,Haicheng,40.8523,122.7474,no,1293877,1156052713
CHN,Gaozhou,21.9392,110.8461,no,1288665,1156785303
CHN,Yingtan,28.2333,117,no,1288615,1156301061
CHN,Huaiyin,33.58,119.03,no,1264000,1156662372
CHN,Wuzhong,37.9874,106.1919,no,1284000,1156139322
IND,Jabalpur,23.1667,79.9333,no,1267564,1356115460
IND,Thane,19.18,72.9633,no,1261517,1356681152
CHN,Zhangye,38.9355,100.4553,no,1270000,1156180353
CHN,Rucheng,32.3852,120.5634,no,1267066,1156323529
RUS,Nizhniy Novgorod,56.3269,44.0075,no,1264075,1643012126
HND,Comayaguela,14.0833,-87.2167,no,1250000,1340762485
CHN,Yangshe,31.8775,120.5512,no,1253100,1156203000
CHN,Shaoyang,32.9387,119.8404,no,1253548,1156668366
IND,Dhanbad,23.7928,86.435,no,1246000,1356103392
CHN,Yichun,47.7235,128.8893,no,1250000,1156757274
CHN,Laiwu,36.1833,117.6667,no,1248636,1156207332
RUS,Kazan,55.7908,49.1144,no,1243500,1643101260
CHN,Dayan,26.8808,100.2208,no,1244769,1156828380
KOR,Suwon,37.2858,127.01,no,1234300,1410679777
CHN,Jiangyin,31.9087,120.2653,no,1241045,1156033234
CHN,Yongcheng,33.9317,116.4459,no,1240382,1156841802
CAN,Calgary,51.05,-114.0667,no,1239220,1124690423
VNM,Can Tho,10.0333,105.7833,no,1237300,1704783472
NGA,Abuja,9.0556,7.4914,yes,1235880,1566342270
CHN,Yiwu,29.3081,120.0698,no,1234015,1156078044
MMR,Mandalay,21.9769,96.0869,no,1225546,1104468217
CHN,Beidao,34.6,105.92,no,1225000,1156137209
IRQ,Al Basrah,30.4889,47.81,no,1225793,1368714645
CHN,Shuangshui,26.5944,104.8333,no,1221000,1156070389
ESP,Sevilla,37.3828,-5.9731,no,1212045,1724991838
BRA,Vila Velha,3.2167,-51.2167,no,1209091,1076575691
IND,Allahabad,25.455,81.84,no,1201000,1356718332
IND,Varanasi,25.3189,83.0128,no,1198491,1356145782
TUN,Tunis,36.8008,10.18,yes,1200000,1788742103
RUS,Chelyabinsk,55.15,61.4,no,1202371,1643224011
KEN,Mombasa,-4.05,39.6667,no,1200000,1404512373
USA,Providence,41.823,-71.4187,no,1203230,1840003289
IRN,Qom,34.6461,50.8789,no,1201158,1364701633
NGA,Maiduguri,11.8333,13.15,no,1197497,1566540296
MOZ,Maputo,-25.9153,32.5764,yes,1191613,1508074843
ARG,Rosario,-32.9575,-60.6394,no,1193605,1032770677
NGA,Benin City,6.3176,5.6145,no,1190000,1566080151
CHN,Xinyu,27.795,114.9242,no,1186700,1156138735
IRN,Ahvaz,31.3203,48.6692,no,1184788,1364350188
IRL,Dublin,53.3425,-6.2658,yes,1173179,1372595407
USA,Jacksonville,30.3322,-81.6749,no,1181496,1840015031
SAU,Medina,24.4667,39.6,no,1180770,1682345785
IND,Srinagar,34.0911,74.8061,no,1180570,1356442950
RUS,Omsk,54.9667,73.3833,no,1178391,1643360863
CHN,Huazhou,21.654,110.6294,no,1178809,1156282637
IDN,Cilacap,-7.7167,109.017,no,1174964,1360503809
CHN,Xiantao,30.3833,113.4,no,1175085,1156216927
IDN,Bandar Lampung,-5.4294,105.2625,no,1166761,1360243491
RUS,Samara,53.1833,50.1167,no,1169719,1643205757
CHN,Guankou,28.1417,113.625,no,1168056,1156249346
KOR,Ulsan,35.55,129.3167,no,1166033,1410134602
CHN,Dingzhou,38.5158,114.9845,no,1165182,1156656582
BRA,Campinas,-22.9009,-47.0573,no,1164098,1076145766
CHN,Lianyuan,27.6961,111.6659,no,1162928,1156490109
CHN,Rongcheng,29.8239,112.9019,no,1162770,1156102432
CHN,Kaiyuan,36.0656,113.8153,no,1160000,1156441554
MMR,Nay Pyi Taw,19.8028,96.1583,yes,1160242,1104838105
SEN,Dakar,14.7319,-17.4572,yes,1146053,1686604760
CHN,Zhuji,29.7169,120.2314,no,1157938,1156504227
MEX,Zapopan,20.7167,-103.4,no,1155790,1484198680
CHN,Leiyang,26.4179,112.8457,no,1151554,1156057789
CHN,Dadukou,26.5849,101.7149,no,1144000,1156901342
PAK,Quetta,30.192,67.007,no,1140000,1586556108
IND,Amritsar,31.6167,74.85,no,1132383,1356926507
PER,Callao,-12.0611,-77.1333,no,1129854,1604422141
IND,Aligarh,27.88,78.08,no,1131160,1356076391
CHN,Yingchuan,34.1511,113.4733,no,1131896,1156748426
HND,Tegucigalpa,14.0942,-87.2067,yes,1126534,1340344059
MEX,Ciudad Nezahualcoyotl,19.41,-99.03,no,1109363,1484016661
LBY,Tripoli,32.8752,13.1875,yes,1126000,1434201852
RUS,Rostov,47.2333,39.7167,no,1125299,1643013518
MEX,Nezahualcoyotl,19.4,-98.9889,no,1110565,1484074285
IND,Bhiwandi,19.3,73.0667,no,1125898,1356763571
CHN,Zhoushan,30.0162,122.0988,no,1121261,1156200283
GEO,Tbilisi,41.7225,44.7925,yes,1118035,1268203191
RUS,Ufa,54.7333,55.9667,no,1115560,1643722928
MAR,Fes,34.0433,-5.0033,no,1112072,1504861997
VNM,Bien Hoa,10.9575,106.8426,no,1104000,1704863046
MEX,Mexicali,32.6633,-115.4678,no,1102342,1484788702
IND,Gwalior,26.215,78.1931,no,1101981,1356363967
CHN,Ankang,32.6877,109.0235,no,1100000,1156255711
NGA,Ikare,7.5304,5.76,no,1099931,1566683694
CHN,Hegang,47.3139,130.2775,no,1100000,1156541759
USA,Salt Lake City,40.7777,-111.9306,no,1098526,1840021383
IND,Bhilai,21.2167,81.4333,no,1097000,1356071083
CHN,Yuyao,30.0372,121.1546,no,1095000,1156221984
TCD,N'Djamena,12.11,15.05,yes,1092066,1148708596
CHN,Hanchuan,30.652,113.8274,no,1092700,1156149248
CHN,Gongzhuling,43.5036,124.8088,no,1092692,1156696810
DNK,Copenhagen,55.6786,12.5635,yes,1085000,1208763942
JOR,Irbid,32.5556,35.85,no,1088100,1400221568
IND,Haora,22.59,88.31,no,1077075,1356986516
DEU,Cologne,50.9422,6.9578,no,1085664,1276015998
RUS,Krasnoyarsk,56.0167,92.8667,no,1083865,1643544975
CHN,Yicheng,31.3697,119.8239,no,1082929,1156292419
CHN,Mizhou,36,119.4167,no,1081960,1156935002
USA,Nashville,36.1715,-86.7843,no,1081903,1840036155
ARM,Yerevan,40.1814,44.5144,yes,1075800,1051074169
IND,Ranchi,23.3556,85.3347,no,1073440,1356110588
KAZ,Nur-Sultan,51.1333,71.4333,yes,1078362,1398516045
MRT,Nouakchott,18.0783,-15.9744,yes,1077169,1478414984
ZAF,Vereeniging,-26.6736,27.9319,no,1074000,1710271883
USA,Richmond,37.5295,-77.4756,no,1075798,1840001698
BRA,Sao Luis,-2.53,-44.3028,no,1073893,1076819308
HND,San Pedro Sula,15.5,-88.0333,no,1073824,1340568412
CHN,Taixing,32.1724,120.0142,no,1073921,1156331200
USA,Memphis,35.1046,-89.9773,no,1066967,1840015457
KOR,Goyang,37.6564,126.835,no,1061929,1410511255
IND,Bezwada,16.5167,80.6167,no,1048240,1356807575
CAN,Edmonton,53.5344,-113.4903,no,1062643,1124290735
CHN,Xishan,27.6609,113.4946,no,1060000,1156155575
VEN,Barquisimeto,10.0678,-69.3467,no,1059092,1862860739
JPN,Sendai,38.2683,140.8694,no,1058070,1392457903
RUS,Voronezh,51.6717,39.2106,no,1047549,1643811064
RUS,Perm,58.0139,56.2489,no,1048005,1643294442
KOR,Changwon,35.2281,128.6811,no,1046054,1410592618
CHN,Zhongwei,37.5139,105.1884,no,1046000,1156956616
CHN,Shouguang,36.8833,118.7333,no,1039205,1156787809
IDN,Bogor,-6.6,106.8,no,1030720,1360771925
USA,Raleigh,35.8325,-78.6435,no,1038738,1840014497
COL,Cartagena,10.4236,-75.5253,no,1036412,1170886102
IND,Chandigarh,30.7353,76.7911,no,1026459,1356739179
KGZ,Bishkek,42.8667,74.5667,yes,1027200,1417191971
NLD,Amsterdam,52.35,4.9166,yes,1031000,1528355309
MOZ,Matola,-25.9667,32.4667,no,1032197,1508768577
NGA,Ogbomoso,8.1333,4.25,no,1032000,1566373448
TKM,Ashgabat,37.95,58.3833,yes,1031992,1795049992
CHN,E'zhou,30.3972,114.8842,no,1031000,1156414637
BRA,Maceio,-9.6658,-35.735,no,1029129,1076440479
NER,Niamey,13.5086,2.1111,yes,1026848,1562932886
NIC,Managua,12.15,-86.2667,yes,1028808,1558296252
IDN,Patam,1.0678,104.0167,no,1029808,1360893799
TUR,Tekirdag,40.9833,27.5167,no,1029927,1792519395
CHN,Linhai,28.8523,121.1409,no,1028813,1156451663
EGY,Shubra al Khaymah,30.1286,31.2422,no,1025569,1818909612
LBR,Monrovia,6.3106,-10.8047,yes,1021762,1430477826
CHN,Wafangdian,39.6271,121.9972,no,1024876,1156476417
CHN,Zhongxiang,31.169,112.5853,no,1022514,1156631720
KAZ,Shymkent,42.3,69.6,no,1018974,1398791401
USA,New Orleans,30.0687,-89.9288,no,1020886,1840001839
RUS,Volgograd,48.7,44.4833,no,1015586,1643577201
HTI,Port-au-Prince,18.5425,-72.3386,yes,987310,1332401940
IND,Mysore,12.3086,76.6531,no,1014227,1356779323
UKR,Odesa,46.4775,30.7326,no,1010783,1804178102
NPL,Kathmandu,27.7167,85.3667,yes,975453,1524589448
IND,Raipur,21.2379,81.6337,no,1010087,1356374983
FRA,Nice,43.7034,7.2663,no,1006402,1250774553
PER,Arequipa,-16.3988,-71.5369,no,1008290,1604723954
NGA,Port Harcourt,4.75,7,no,1005904,1566070649
NLD,Rotterdam,51.92,4.48,no,1005000,1528892850
USA,Louisville,38.1663,-85.6485,no,1005654,1840030815
CHN,Zaoyang,32.1287,112.7581,no,1004741,1156197076
CHN,Shuizhai,33.4433,114.8994,no,1003698,1156462734
IND,Kota,25.18,75.83,no,1001694,1356820310
ARE,Abu Dhabi,24.4781,54.3686,yes,1000000,1784176710
SWE,Stockholm,59.3294,18.0686,yes,972647,1752425602
CAN,Ottawa,45.4247,-75.695,no,989567,1124399363
ERI,Asmara,15.3333,38.9167,yes,963000,1232791236
SLE,Freetown,8.4833,-13.2331,yes,951000,1694085071
ISR,Jerusalem,31.7833,35.2167,yes,919438,1376261644
PAN,Panama City,9,-79.5,yes,880691,1591672475
TGO,Lome,6.1319,1.2228,yes,837437,1768409132
GAB,Libreville,0.3901,9.4544,yes,797003,1266952885
HRV,Zagreb,45.8,15.95,yes,790017,1191233290
TJK,Dushanbe,38.5731,68.7864,yes,780000,1762930616
MWI,Lilongwe,-13.9833,33.7833,yes,781538,1454688499
BEN,Cotonou,6.4,2.52,yes,762000,1204955174
LAO,Vientiane,17.9667,102.6,yes,760000,1418732714
LKA,Colombo,6.9167,79.8333,yes,752993,1144251314
RWA,Kigali,-1.9536,30.0606,yes,745261,1646923541
ZAF,Pretoria,-25.7464,28.1881,yes,741651,1710176249
CAF,Bangui,4.3732,18.5628,yes,734350,1140080881
CAN,Winnipeg,49.8844,-97.1464,no,705244,1124224963
CAN,Quebec City,46.8139,-71.2081,no,705103,1124823933
LVA,Riga,56.9475,24.1069,yes,698529,1428586192
NOR,Oslo,59.9111,10.7528,yes,693494,1578324706
MDA,Chisinau,47.0056,28.8575,yes,685900,1498011437
GRC,Athens,37.9794,23.7161,yes,664046,1300715560
BDI,Bujumbura,-3.3825,29.3611,yes,658859,1108101689
FIN,Helsinki,60.1756,24.9342,yes,642045,1246177997
MKD,Skopje,41.9833,21.4333,yes,640000,1807600615
KWT,Kuwait City,29.375,47.98,yes,637411,1414102075
JAM,Kingston,17.9714,-76.7931,yes,580000,1388709177
LTU,Vilnius,54.6833,25.2833,yes,574147,1440887149
SLV,San Salvador,13.6989,-89.1914,yes,567698,1222647454
DJI,Djibouti,11.595,43.1481,yes,562000,1262028958
PRT,Lisbon,38.7452,-9.1604,yes,506654,1620619017
CAN,Kitchener,43.4186,-80.4728,no,470015,1124158530
EST,Tallinn,59.4372,24.745,yes,434562,1233260021
ZAF,Cape Town,-33.925,18.425,yes,433688,1710680650
SVK,Bratislava,48.1447,17.1128,yes,429564,1703195001
ALB,Tirana,41.33,19.82,yes,418495,1008162156
AUS,Canberra,-35.2931,149.1269,yes,426704,1036142029
NZL,Wellington,-41.2889,174.7772,yes,418500,1554772152
LBN,Beirut,33.8869,35.5131,yes,361366,1422847713
TZA,Dodoma,-6.25,35.75,yes,410956,1834288497
CAN,Halifax,44.6475,-63.5906,no,403131,1124130981
GNB,Bissau,11.8592,-15.5956,yes,395954,1624168850
SSD,Juba,4.85,31.6,yes,372410,1728444337
PNG,Port Moresby,-9.4789,147.1494,yes,364125,1598685395
CIV,Yamoussoukro,6.8161,-5.2742,yes,355573,1384683557
CAN,Victoria,48.4283,-123.3647,no,335696,1124147219
LSO,Maseru,-29.31,27.48,yes,330790,1426977668
CYP,Nicosia,35.1725,33.365,yes,330000,1196944155
NAM,Windhoek,-22.57,17.0836,yes,322500,1516802003
BEN,Porto-Novo,6.4833,2.6167,yes,300000,1204172060
BOL,Sucre,-19.0431,-65.2592,yes,300000,1068823873
CRI,San Jose,9.9333,-84.0833,yes,288054,1188749877
SVN,Ljubljana,46.05,14.5167,yes,284355,1705917455
BIH,Sarajevo,43.8667,18.4167,yes,275524,1070966777
BHS,Nassau,25.0667,-77.3333,yes,274400,1044318561
ZAF,Bloemfontein,-29.1,26.2167,yes,256185,1710495933
BWA,Gaborone,-24.6569,25.9086,yes,231626,1072756768
SUR,Paramaribo,5.8667,-55.1667,yes,223757,1740518660
TLS,Dili,-8.5586,125.5736,yes,222323,1626308942
XKS,Pristina,42.6667,21.1667,yes,204725,1901760068
GUY,Georgetown,6.7833,-58.1667,yes,200500,1328160906
GNQ,Malabo,3.7521,8.7737,yes,187302,1226861333
BEL,Brussels,50.8467,4.3517,yes,185103,1056469830
MDV,Male,4.175,73.5083,yes,133019,1462441685
MNE,Podgorica,42.4397,19.2661,yes,174515,1499454516
BHR,Manama,26.2167,50.5831,yes,157474,1048989486
MUS,Port Louis,-20.1667,57.5,yes,149194,1480131261
IND,New Delhi,28.7,77.2,yes,142004,1356215164
CHE,Bern,46.948,7.4474,yes,133798,1756374318
ISL,Reykjavik,64.1475,-21.935,yes,128793,1352327190
CPV,Praia,14.9177,-23.5092,yes,127832,1132398770
LUX,Luxembourg,49.6106,6.1328,yes,122273,1442262731
LKA,Sri Jayewardenepura Kotte,6.9,79.9164,yes,115826,1144239330
BRB,Bridgetown,13.0975,-59.6167,yes,110000,1052274244
COM,Moroni,-11.7036,43.2536,yes,111329,1174793581
BTN,Thimphu,27.4833,89.6333,yes,104000,1064010361
SWZ,Mbabane,-26.3167,31.1333,yes,90138,1748811945
SLB,Honiara,-9.4333,159.95,yes,84520,1090737486
FJI,Suva,-18.1333,178.4333,yes,88271,1242615095
LCA,Castries,14.0167,-60.9833,yes,70000,1662922505
STP,Sao Tome,0.3333,6.7333,yes,56166,1678301324
VUT,Port-Vila,-17.75,168.3,yes,51437,1548805075
BRN,Bandar Seri Begawan,4.9167,114.9167,yes,50000,1096465895
MCO,Monaco,43.7396,7.4069,yes,36371,1492854256
BDI,Gitega,-3.4264,29.9306,yes,41944,1108778000
TTO,Port of Spain,10.6667,-61.5167,yes,37074,1780670676
WSM,Apia,-13.8333,-171.8333,yes,37708,1882489296
LIE,Vaduz,47.1415,9.5215,yes,36281,1438317747
GMB,Banjul,13.4531,-16.5775,yes,31356,1270723713
KIR,Tarawa,1.3382,173.0176,yes,28802,1296152641
SYC,Victoria,-4.6236,55.4544,yes,26450,1690193579
MHL,Majuro,7.1167,171.3667,yes,25400,1584000000
VCT,Kingstown,13.1667,-61.2333,yes,25418,1670376659
TON,Nuku`alofa,-21.1347,-175.2083,yes,24571,1776737461
ATG,Saint John's,17.1211,-61.8447,yes,21926,1028912067
AND,Andorra la Vella,42.5,1.5,yes,22151,1020828846
BLZ,Belmopan,17.25,-88.7675,yes,17222,1084586375
DMA,Roseau,15.3,-61.3833,yes,16582,1212060440
KNA,Basseterre,17.2983,-62.7342,yes,13220,1659198919
ASM,Pago Pago,-14.274,-170.7046,yes,12576,1016976740
MLT,Valletta,35.8978,14.5125,yes,6444,1470574399
FSM,Palikir,6.9178,158.185,yes,6227,1583008885
TUV,Funafuti,-8.5167,179.2167,yes,6025,1798251391
SWZ,Lobamba,-26.4167,31.1667,yes,5800,1748963140
GRD,Saint George's,12.0444,-61.7417,yes,4315,1308891766
SMR,San Marino,43.932,12.4484,yes,4040,1674741947
MNP,Capitol Hill,15.2137,145.7546,yes,2500,1580556972
GUM,Hagta,13.4745,144.7504,yes,1051,1316937540
IND,Bareilly,28.364,79.415,no,1000000,1356698199
VNM,Quang Ha,16.06,108.25,no,1000000,1704966442
JPN,Kitaku,33.8704,130.82,no,997536,1392129541
IND,Jodhpur,26.2918,73.0168,no,995000,1356727084
CHN,Xingcheng,24.1681,115.6669,no,993000,1156913008
CHN,Dongtai,32.8534,120.3037,no,990306,1156536785
BRA,Joinvile,-26.32,-48.8399,no,988000,1076050637
CHN,Yingcheng,24.1876,113.4042,no,986400,1156012356
UKR,Dnipro,48.45,34.9833,no,983836,1804152933
GBR,Glasgow,55.8609,-4.2514,no,985290,1826836462
JPN,Chiba,35.6,140.1,no,980203,1392107144
CHN,Danyang,31.9948,119.575,no,980662,1156578273
BRA,Natal,-6.9838,-60.2699,no,980588,1076336975
ITA,Naples,40.8333,14.25,no,972212,1380646673
CHN,Zhaodong,46.0635,125.9773,no,980000,1156601489
CHN,Xibeijie,39.737,98.5049,no,977600,1156960560
IRQ,Kirkuk,35.4667,44.4,no,975000,1368344172
CHN,Huilong,31.8131,121.6574,no,972525,1156485081
KOR,Tongjin,37.2361,127.2011,no,971327,1410160862
USA,Oklahoma City,35.4676,-97.5136,no,972943,1840020428
FRA,Toulouse,43.6045,1.444,no,968638,1250258110
TUR,Denizli,37.7731,29.0878,no,963464,1792161179
IND,Dispur,26.15,91.77,no,957352,1356960169
IND,Coimbatore,11,76.9667,no,959823,1356999503
CHN,Luocheng,22.7645,111.5745,no,959006,1156138895
IND,Guwahati,26.1667,91.7667,no,957352,1356593800
CHN,Shima,24.4475,117.8118,no,956400,1156202451
KOR,Songnam,37.4386,127.1378,no,948757,1410622472
IND,Solapur,17.6833,75.9167,no,951558,1356314385
MAR,Tangier,35.7847,-5.8125,no,947952,1504861504
CHN,Anqiu,36.3619,119.1072,no,947723,1156592047
CHN,Feicheng,36.186,116.772,no,946627,1156303834
CHN,Taishan,22.2486,112.785,no,941095,1156105450
CHN,Meishan,34.1736,112.839,no,936000,1156023073
COD,Kisangani,0.5153,25.1911,no,935977,1180478201
SDN,Khartoum North,15.6333,32.6333,no,936349,1729318628
MEX,Aguascalientes,21.876,-102.296,no,934424,1484666646
MAR,Marrakech,31.6295,-7.9811,no,928850,1504172585
CHN,Nada,19.5,109.5833,no,932356,1156911678
UKR,Donetsk,48.0089,37.8042,no,929063,1804963805
CHN,Taihecun,45.768,131.0063,no,930000,1156875484
CHN,Wuchuan,21.4571,110.7659,no,927275,1156198103
PER,Trujillo,-8.1119,-79.0289,no,919899,1604613706
PHL,Cebu City,10.3,123.9,no,922611,1608136151
CHN,Taihe,30.8706,105.3784,no,924531,1156281983
BRA,Olinda,-8,-34.85,no,921840,1076784718
USA,Bridgeport,41.1918,-73.1953,no,924449,1840004836
IND,Trichinopoly,10.8269,78.6928,no,916857,1356884472
CHN,Xin'an,34.3662,118.3369,no,920628,1156236053
IDN,Padang,-0.9556,100.3606,no,914970,1360900986
CHN,Qingzhou,36.6967,118.4797,no,914047,1156874864
USA,Buffalo,42.9016,-78.8487,no,914341,1840000386
CHN,Xinyi,22.3559,110.9369,no,913708,1156936644
CHN,Lichuan,30.2965,108.9378,no,913700,1156302762
CHN,Daye,30.1003,114.9699,no,909724,1156255811
USA,Fort Worth,32.7811,-97.3473,no,909585,1840020696
CHN,Zhuanghe,39.6896,122.9664,no,905852,1156410076
USA,Hartford,41.7661,-72.6834,no,905152,1840004773
SAU,Ad Dammam,26.4333,50.1,no,903312,1682452296
KOR,Bucheon,37.4989,126.7831,no,867678,1410428222
CHN,Lhasa,29.65,91.1,no,902500,1156369972
SYR,Homs,34.7333,36.7167,no,900492,1760013934
CHN,Jiaozhou,36.2481,119.9625,no,900500,1156752602
MEX,Merida,20.97,-89.62,no,892363,1484396779
CHN,Dengtalu,36.08,114.35,no,887000,1156202014
NGA,Zaria,11.0667,7.7,no,889000,1566287704
IND,Hubli,15.36,75.125,no,890000,1356102365
NGA,Abeokuta,7.15,3.35,no,888924,1566979497
USA,Tucson,32.1545,-110.8782,no,888486,1840022101
RUS,Krasnodar,45.0333,38.9833,no,881476,1643438227
BRA,Natal,-5.795,-35.2089,no,877662,1076697777
BRA,Novo Hamburgo,-29.7096,-51.14,no,876990,1076221386
MEX,Chihuahua,28.6353,-106.0889,no,878062,1484335603
MYS,Klang,3.0333,101.45,no,878000,1458509635
ITA,Turin,45.0667,7.7,no,870952,1380244627
NGA,Jos,9.9333,8.8833,no,873943,1566773679
CHN,Laiyang,36.9758,120.7136,no,874127,1156207330
IND,Jalandhar,31.3256,75.5792,no,873725,1356494816
BRA,Campo Grande,-20.4686,-54.6222,no,874210,1076660445
MAR,Sale,34.05,-6.8167,no,850403,1504989034
VEN,Barinas,8.6333,-70.2167,no,873962,1862647790
FRA,Marseille,43.2964,5.37,no,870018,1250774071
CHN,Kaifeng Chengguanzhen,34.85,114.35,no,872000,1156686574
TUR,Eskisehir,39.7767,30.5206,no,871187,1792933981
CHN,Gaomi,36.3833,119.75,no,868715,1156673331
MYS,Ipoh,4.6,101.07,no,866772,1458423505
CHN,Hai'an,32.532,120.4604,no,866337,1156332302
GBR,Liverpool,53.4,-2.9833,no,864122,1826558678
PHL,Zamboanga City,6.9167,122.0833,no,861799,1608189351
DZA,Oran,35.6969,-0.6331,no,852000,1012126319
GBR,Southampton,50.9,-1.4,no,855569,1826602892
CHN,Weichanglu,37.1792,119.9333,no,859424,1156194600
IDN,Pekanbaru,0.5333,101.45,no,855221,1360422679
GBR,Portsmouth,50.8058,-1.0872,no,855679,1826964096
CHN,Leping,28.9632,117.1203,no,852800,1156705082
IRQ,Erbil,36.1911,44.0094,no,852500,1368578192
IRN,Kermanshah,34.3167,47.0686,no,851405,1364535690
CHN,Hailun,47.4585,126.9632,no,850000,1156804488
CHN,Yangchun,22.1667,111.7833,no,849504,1156787307
CHN,Macheng,31.1817,115.0189,no,849090,1156949639
NGA,Ilorin,8.5,4.55,no,847582,1566480168
BRA,Teresina,-5.0949,-42.8042,no,847430,1076727667
USA,Omaha,41.2627,-96.0522,no,847819,1840009315
CHN,Yuci,37.6804,112.73,no,840000,1156177817
RUS,Saratov,51.5333,46,no,845300,1643556540
BRA,Iguacu,-22.74,-43.47,no,844583,1076339714
USA,El Paso,31.8479,-106.4309,no,843386,1840023252
IDN,Denpasar,-8.6667,115.2167,no,834881,1360848527
CHN,Dehui,44.5323,125.6965,no,839786,1156898134
MEX,Naucalpan de Juarez,19.4753,-99.2378,no,833779,1484850125
IND,Bhubaneshwar,20.2644,85.8281,no,837737,1356140143
CHN,Tongchuan,34.9057,108.9422,no,835600,1156849608
KOR,Cheongju,36.6372,127.4897,no,833276,1410964361
NGA,Warri,5.5167,5.75,no,830106,1566325734
COG,Pointe-Noire,-4.7889,11.8653,no,829134,1178411563
CHN,Rongjiawan,29.3801,113.1,no,826000,1156795164
MEX,San Luis Potosi,22.1511,-100.9761,no,824229,1484583620
MYS,Butterworth,5.3942,100.3664,no,821652,1458469233
IND,Bhayandar,19.3,72.85,no,814655,1356019118
CHN,Renqiu,38.7094,116.1008,no,822455,1156943939
MEX,Toluca,19.2925,-99.6569,no,819561,1484124846
USA,Honolulu,21.3294,-157.846,no,820987,1840013305
MEX,Queretaro,20.5875,-100.3928,no,804663,1484604775
CHN,Xindi,29.8182,113.4653,no,819446,1156263165
CHN,Wu'an,36.6941,114.1847,no,819000,1156729960
BRA,Sao Bernardo do Campo,-23.6939,-46.565,no,816925,1076793227
MEX,Hermosillo,29.0989,-110.9542,no,812229,1484015319
CHN,Wutong,30.6326,120.5474,no,815848,1156182309
PHL,Taguig City,14.5167,121.05,no,804915,1608766695
MEX,Saltillo,25.4333,-101,no,807537,1484107245
CHN,Gaoyou,32.7847,119.4432,no,811800,1156235854
CHN,Hejian,38.4451,116.0897,no,810306,1156405731
CHN,Yiyang,26.4103,112.3913,no,810447,1156142520
CHN,Puxi,35.2125,114.735,no,809535,1156046618
CHN,Zijinglu,34.7513,112.9854,no,807857,1156086381
CHN,Xiashi,30.5333,120.6833,no,806966,1156080077
TUR,Trabzon,41.005,39.7225,no,807903,1792019202
BRA,Joao Pessoa,-7.0833,-34.8333,no,801718,1076922014
CHN,Dongyang,29.2785,120.2282,no,804398,1156259752
USA,McAllen,26.2273,-98.2471,no,804114,1840021024
ESP,Valencia,39.4667,-0.375,no,794288,1724981666
CHN,Qingping,34.538,113.3796,no,797200,1156033855
JPN,Niigata,37.9161,139.0364,no,796500,1392913753
JPN,Hamamatsu,34.7167,137.7333,no,791770,1392174500
MEX,Morelia,19.7683,-101.1894,no,784776,1484669072
PHL,Pasig City,14.575,121.0833,no,755300,1608278212
IND,Moradabad,28.8418,78.7568,no,787000,1356269375
MEX,Culiacan,24.8069,-107.3939,no,785800,1484516810
CHN,Xiangxiang,27.7389,112.5223,no,787216,1156524101
IDN,Malang,-7.98,112.62,no,780000,1360141408
CHN,Xingyi,25.091,104.9011,no,783120,1156255316
CHN,Chaohucun,31.6783,117.7353,no,782000,1156671495
CHN,Fuyang,30.0533,119.9519,no,771000,1156340393
PHL,Antipolo,14.5842,121.1763,no,776386,1608824345
GBR,Nottingham,52.95,-1.15,no,768638,1826122597
CHN,Cencheng,22.9297,111.0186,no,772113,1156000460
POL,Krakow,50.0614,19.9372,no,766739,1616172264
USA,Hempstead,40.6629,-73.6089,no,768057,1840005293
TUR,Erzurum,39.9097,41.2756,no,767848,1792511957
ARE,Al `Ayn,24.2075,55.7447,no,766936,1784674685
CHN,Songzi,30.1772,111.7732,no,765911,1156837705
CHN,Laixi,36.8667,120.5333,no,762900,1156973102
CHN,Zhongba,31.7761,104.7406,no,762140,1156515985
CHN,Qingnian,36.8494,115.7061,no,760781,1156689964
USA,Albuquerque,35.1053,-106.6464,no,761195,1840019176
NGA,Kaduna,10.5231,7.4403,no,760084,1566368729
MEX,Tlalnepantla,19.5367,-99.1947,no,750224,1484861603
CHN,Xinhualu,34.3962,113.7249,no,758079,1156544851
CHN,Guangshui,31.6189,113.8229,no,755910,1156267419
DEU,Frankfurt,50.1136,8.6797,no,753056,1276054552
IDN,Samarinda,-0.5022,117.1536,no,753370,1360684979
TWN,Changhua,24.0667,120.5333,no,750000,1158439005
ZAF,Pietermaritzburg,-29.5833,30.4167,no,750845,1710690280
PRK,Hungnam,39.8231,127.6232,no,751322,1408328889
IND,Kolhapur,16.7,74.2333,no,750000,1356110593
VEN,Ciudad Guayana,8.3596,-62.6517,no,751331,1862889027
COL,Cucuta,7.9075,-72.5047,no,750000,1170743755
CHN,Licheng,31.4174,119.4786,no,749522,1156933354
IND,Thiruvananthapuram,8.5,76.8997,no,743691,1356024354
RUS,Tyumen,57.15,65.5333,no,744554,1643040435
VEN,San Cristobal,7.7682,-72.2322,no,743924,1862252264
UKR,Zaporizhzhia,47.8378,35.1383,no,741717,1804644752
MEX,Cancun,21.1606,-86.8475,no,743626,1484010310
JPN,Kumamoto,32.8031,130.7078,no,739393,1392106283
CHN,Chengguan,35.4599,113.7975,no,740435,1156866870
CHN,Nehe,48.48,124.8738,no,740000,1156609562
NGA,Sokoto,13.0622,5.2339,no,732178,1566574518
USA,Birmingham,33.5277,-86.7987,no,739573,1840006507
CHN,Zunhua,40.1881,117.9593,no,737011,1156756935
IRN,Orumiyeh,37.55,45.1,no,736224,1364158221
NGA,Oyo,7.8333,3.9333,no,736072,1566930579
CHN,Wugang,26.7345,110.6293,no,734870,1156089788
CHN,Shuangqiao,35.0833,112.5833,no,733000,1156968311
FRA,Rennes,48.1147,-1.6794,no,727357,1250363682
CHN,Sizhan,39.0099,106.3694,no,730400,1156450911
CHN,Langzhong,31.5833,105.972,no,728935,1156930148
GBR,Bristol,51.45,-2.5833,no,724000,1826921049
CHN,Qian'an,40.0059,118.6973,no,728160,1156315498
UKR,Lviv,49.8419,24.0315,no,724314,1804939658
CHN,Zouping,36.8625,117.7424,no,726722,1156817518
DEU,Bremen,53.1153,8.7975,no,724909,1276376509
MEX,Reynosa,26.0922,-98.2778,no,725793,1484737671
IRQ,An Najaf,32.029,44.3396,no,724700,1368003357
JPN,Sagamihara,35.5667,139.3667,no,722828,1392967248
CHN,Guli,28.9008,120.0284,no,723490,1156383681
USA,Sarasota,27.3386,-82.5431,no,722243,1840015988
JPN,Okayama,34.65,133.9167,no,720865,1392954750
CAN,Mississauga,43.6,-79.65,no,721599,1124112672
CHN,Lingbao Chengguanzhen,34.5221,110.8786,no,721049,1156837145
CHN,Anlu,31.2575,113.6783,no,720000,1156406202
CHN,Wusong,30.9333,117.7667,no,720000,1156264408
USA,Dayton,39.7797,-84.1998,no,718353,1840034249
NGA,Enugu,6.4403,7.4942,no,715774,1566212729
MYS,George Town,5.4145,100.3292,no,708127,1458236750
BRA,Jaboatao,-8.1803,-35.0014,no,702621,1076000699
BRA,Santo Andre,-23.6572,-46.5333,no,710210,1076625886
CHN,Xichang,27.8983,102.2706,no,712434,1156116456
COL,Soledad,10.92,-74.77,no,698852,1170765625
CHN,Chengxiang,31.4515,121.1043,no,709500,1156254788
RUS,Tolyatti,53.5167,49.4167,no,707408,1643256295
IND,Saharanpur,29.964,77.546,no,705478,1356139858
IND,Warangal,17.9756,79.6011,no,704570,1356851618
BRA,Osasco,-23.5328,-46.7919,no,694844,1076786452
CHN,Dashiqiao,40.6328,122.5021,no,704891,1156141962
SYR,Latakia,35.5236,35.7917,no,700000,1760555544
USA,Rochester,43.168,-77.6162,no,703952,1840000373
USA,Fresno,36.7831,-119.7941,no,703498,1840020319
IDN,Banjarmasin,-3.3333,114.5833,no,692793,1360685223
IND,Salem,11.65,78.1667,no,693236,1356567087
CHN,Changsha,22.3762,112.6877,no,699242,1156011120
FRA,Grenoble,45.1715,5.7224,no,687985,1250071647
CHN,Shishi,24.7355,118.6434,no,693000,1156077046
MEX,Guadalupe,25.6775,-100.2597,no,691931,1484002410
BRA,Aracaju,-10.9111,-37.0717,no,685356,1076527830
NGA,Bauchi,10.3158,9.8442,no,693700,1566483284
CAN,Hamilton,43.2567,-79.8692,no,693645,1124567288
POL,Lodz,51.7769,19.4547,no,690422,1616832750
CHN,Miluo Chengguanzhen,28.8049,113.0745,no,692080,1156690651
CHN,Gaizhou,40.4019,122.3499,no,691595,1156145272
JPN,Shizuoka,34.9756,138.3825,no,691185,1392235505
IND,Malegaon,20.55,74.55,no,690844,1356113556
IRQ,Karbala',32.6167,44.0333,no,690100,1368597794
CHN,Leling,37.7333,117.2167,no,689867,1156044041
BRA,Sao Jose dos Campos,-23.1789,-45.8869,no,688597,1076783887
CHN,Jianshe,34.2189,113.7693,no,687130,1156444449
MEX,Acapulco de Juarez,16.8636,-99.8825,no,687608,1484463183
GBR,Sheffield,53.3833,-1.4667,no,685368,1826289852
CHN,Jingcheng,32.0058,120.2547,no,684360,1156033208
PHL,City of Paranaque,14.4667,121.0167,no,665822,1608379532
IND,Kochi,9.9667,76.2833,no,677381,1356707865
USA,Allentown,40.5961,-75.4756,no,683794,1840001044
PAK,Bahawalpur,29.3956,71.6722,no,681696,1586038700
IDN,Tasikmalaya,-7.3333,108.2,no,678027,1360027771
MAC,Macau,22.203,113.545,no,568700,1446227359
MEX,Torreon,25.5394,-103.4486,no,679288,1484215762
CHN,Xinmin,41.9952,122.8224,no,680000,1156368551
CHN,Shanhu,29.5908,120.8176,no,679762,1156029691
CHN,Zhongshu,27.8116,106.4133,no,679624,1156658422
CHN,Xigaze,29.2649,88.8799,no,679771,1156107208
AUS,Gold Coast,-28.0167,153.4,no,679127,1036153217
ITA,Palermo,38.1157,13.3613,no,674435,1380428434
PHL,Cagayan de Oro,8.4833,124.65,no,675950,1608831546
IND,Gorakhpur,26.7611,83.3667,no,673446,1356190221
CHN,Pinghu,30.7005,121.0104,no,671834,1156720536
CHN,Guankou,30.9933,103.624,no,671200,1156503907
USA,Tulsa,36.1284,-95.9042,no,671033,1840021672
CHN,Yatou,37.1653,122.4867,no,670251,1156009046
CHN,Songyang,34.4161,113.0424,no,668592,1156143149
USA,Cape Coral,26.6446,-81.9956,no,668382,1840015130
PRK,Ch'ongjin,41.8,129.7831,no,667929,1408498177
BRA,Sao Jose dos Pinhais,-25.57,-49.18,no,665063,1076174955
CHN,Puyang Chengguanzhen,35.7004,114.98,no,666322,1156103317
CHN,Qionghu,28.8417,112.3595,no,667104,1156678111
CHN,Yanshi Chengguanzhen,34.723,112.7796,no,666696,1156660138
BRA,Ribeirao Preto,-21.1783,-47.8067,no,666323,1076524478
PHL,Dasmarinas,14.3294,120.9367,no,659019,1608418544
AGO,Huambo,-12.7667,15.7333,no,665564,1024079828
CHN,Wenchang,31.054,116.9507,no,664455,1156574542
CHN,Shulan,44.4167,126.95,no,663403,1156989733
VEN,Catia La Mar,10.6,-67.0333,no,661897,1862657837
CIV,Bouake,7.6833,-5.0331,no,659233,1384983838
IRQ,As Sulaymaniyah,35.55,45.4333,no,656100,1368735317
KOR,Hwasu-dong,37.2,126.7667,no,655350,1410037247
KOR,Jeonju,35.8219,127.1489,no,653055,1410494847
MEX,Durango,24.0167,-104.6667,no,654876,1484854616
IND,Shimoga,13.9304,75.56,no,654055,1356016156
KOR,Ansan,37.3236,126.8219,no,652800,1410585171
ZWE,Bulawayo,-20.1667,28.5667,no,653337,1716032632
CHN,Xiping,25.6005,103.8166,no,652604,1156207794
CHN,Sanhe,39.9808,117.0701,no,652042,1156476348
IND,Guntur,16.3,80.45,no,647508,1356374905
CHN,Dali,25.7003,100.1564,no,652045,1156840276
USA,Concord,37.9722,-122.0016,no,652308,1840018905
IND,Tiruppur,11.1075,77.3398,no,650000,1356539761
KOR,Ch'onan,36.8064,127.1522,no,651661,1410020455
ESP,Zaragoza,41.6483,-0.883,no,649404,1724907391
RUS,Izhevsk,56.85,53.2167,no,646277,1643983138
CHN,Guixi,28.2861,117.2083,no,647240,1156259342
JPN,Honcho,35.6947,139.9825,no,639107,1392505502
BRA,Sorocaba,-23.5019,-47.4578,no,644919,1076758708
MEX,Villahermosa,17.9892,-92.9281,no,640359,1484460894
MYS,Petaling Jaya,3.1073,101.6067,no,638516,1458989343
CHN,Wuxue,29.8518,115.5539,no,644247,1156027100
NLD,Utrecht,52.1003,5.12,no,640000,1528871692
COD,Kikwit,-5.0333,18.8167,no,637736,1180518247
USA,Colorado Springs,38.8674,-104.7606,no,642413,1840018825
PHL,Valenzuela,14.7,120.9833,no,620422,1608492120
CHN,Gaobeidian,39.3257,115.8678,no,640280,1156487293
CHN,Qufu,35.6,116.9833,no,640498,1156490037
CHN,Ruiming,25.8833,116.0333,no,640600,1156104573
POL,Wroclaw,51.1077,17.0353,no,638586,1616108520
IRN,Rasht,37.2833,49.6,no,639951,1364630382
FRA,Nantes,47.2181,-1.5528,no,633690,1250091495
DEU,Stuttgart,48.7761,9.1775,no,634830,1276171358
SAU,Al Hufuf,25.3608,49.5997,no,637389,1682958157
CHN,Xinshi,31.0236,113.1079,no,636776,1156422214
BOL,Cochabamba,-17.3935,-66.157,no,632013,1068793894
RUS,Barnaul,53.3567,83.7872,no,633301,1643318931
LBN,Tripoli,34.4333,35.8333,no,530000,1422886065
CHN,Jin'e,29.3395,105.2868,no,633210,1156661253
LBY,Benghazi,32.1167,20.0667,no,631555,1434915572
UKR,Kryvyy Rih,47.9086,33.3433,no,629695,1804544901
KOR,Yanggok,37.6367,127.2142,no,629061,1410188674
CHN,Changping,40.2248,116.1944,no,614821,1156166828
IND,Raurkela,22.2492,84.8828,no,625831,1356096816
EGY,Halwan,29.8419,31.3342,no,619293,1818000039
USA,Charleston,32.8153,-79.9628,no,628377,1840015163
MEX,Chimalhuacan,19.4167,-98.9,no,614453,1484504936
CHN,Xinxing,39.8734,124.1453,no,627475,1156258586
CHN,Suohe,34.7879,113.392,no,626700,1156236948
IND,Mangalore,12.8703,74.8806,no,623841,1356972351
CHN,Zhuangyuan,37.3,120.8333,no,626683,1156263400
RUS,Ulyanovsk,54.3167,48.3667,no,624518,1643668944
RUS,Irkutsk,52.2833,104.3,no,623736,1643439037
IND,Nanded,19.15,77.3333,no,623708,1356722310
PHL,Bacoor,14.4624,120.9645,no,600609,1608869358
IDN,Pontianak,-0.0206,109.3414,no,618388,1360992394
CHN,Bazhou,39.1235,116.386,no,622975,1156127276
USA,Springfield,42.1155,-72.5395,no,623401,1840000466
CHN,Turpan,42.95,89.1822,no,622903,1156573684
DEU,Dusseldorf,51.2311,6.7724,no,619294,1276615258
CHN,Xingtai,37.0659,114.4753,no,611739,1156294952
CHN,Meihekou,42.5279,125.678,no,618251,1156474288
CHN,Jurong,31.9579,119.1595,no,617706,1156897463
CHN,Zhugang,28.1277,121.2288,no,616346,1156077330
RUS,Khabarovsk,48.4833,135.0667,no,616242,1643175363
CHN,Xinji,37.9423,115.2118,no,615919,1156456552
PRK,Hamhung,39.9167,127.5333,no,614198,1408482040
IDN,Serang,-6.12,106.1503,no,613356,1360329102
SAU,Buraydah,26.3333,43.9667,no,614093,1682470726
YEM,Ta`izz,13.5789,44.0219,no,596672,1887324526
FRA,Montpellier,43.6119,3.8772,no,607896,1250819356
ARG,San Miguel de Tucuman,-26.8167,-65.2167,no,605767,1032233996
RUS,Yaroslavl,57.6167,39.85,no,608079,1643338528
CHN,Zhangshu,28.0667,115.5375,no,610424,1156996913
USA,Grand Rapids,42.962,-85.6562,no,609314,1840002928
RUS,Vladivostok,43.1167,131.9,no,606589,1643832017
MYS,Kuantan,3.8167,103.3333,no,607778,1458763489
IND,Cuttack,20.45,85.8667,no,606007,1356872061
IDN,Jambi,-1.59,103.61,no,602187,1360645580
CHN,Zhuozhou,39.4887,115.9918,no,603535,1156045160
BRA,Uberlandia,-18.9189,-48.2769,no,604013,1076495001
SWE,Gothenburg,57.6717,11.981,no,600473,1752059374
CHN,Tianchang,32.6853,119.0041,no,602840,1156770851
BRA,Canoas,-29.92,-51.18,no,600000,1076009922
PAK,Sargodha,32.0836,72.6711,no,602631,1586696588
PHL,Las Pinas City,14.45,120.9833,no,588894,1608544537
IDN,Cimahi,-6.8833,107.5333,no,586580,1360181436
JPN,Kawaguchi,35.8078,139.7242,no,592373,1392975133
MEX,Tuxtla,16.7528,-93.1167,no,598710,1484832519
IDN,Balikpapan,-1.1489,116.9031,no,598043,1360500922
CHN,Qamdo,31.1375,97.1777,no,598862,1156277802
ZAF,Durban,-29.8583,31.025,no,595061,1710149138
JPN,Kagoshima,31.58,130.5281,no,595319,1392120675
PHL,General Santos,6.1167,125.1667,no,594446,1608171585
IND,Chanda,19.95,79.3,no,595118,1356592607
SAU,Al Hillah,23.4895,46.7564,no,594605,1682494753
RUS,Makhachkala,42.9833,47.4833,no,592976,1643580480
ARG,Mar del Plata,-38,-57.55,no,593337,1032456103
CAN,Brampton,43.6833,-79.7667,no,593638,1124625989
CHN,Luocheng,30.9793,104.28,no,591115,1156180482
USA,Mission Viejo,33.6095,-117.655,no,590249,1840020580
DEU,Dortmund,51.5139,7.4653,no,587010,1276562886
CHN,Chuxiong,25.0461,101.5436,no,588620,1156225985
PHL,Makati City,14.55,121.0333,no,582602,1608725647
USA,Albany,42.6664,-73.7987,no,586383,1840000417
MYS,Shah Alam,3.0833,101.5333,no,584340,1458194263
USA,Knoxville,35.9692,-83.9496,no,586048,1840014486
DEU,Essen,51.4508,7.0131,no,583109,1276769247
BRA,Cuiaba,-15.5958,-56.0969,no,585367,1076112309
CHN,Shangzhi,45.2116,127.962,no,585386,1156107332
CHN,Botou,38.06,116.56,no,584308,1156018338
COL,Bucaramanga,7.1186,-73.1161,no,581130,1170940590
KOR,Anyang,37.3925,126.9269,no,573296,1410581095
ITA,Genoa,44.4072,8.934,no,580097,1380716540
CHN,Kuiju,36.8528,119.3904,no,581470,1156174997
MEX,Tlaquepaque,20.6167,-103.3167,no,575942,1484087945
JPN,Hachioji,35.6667,139.3167,no,577560,1392172935
IND,Dehra Dun,30.318,78.029,no,578420,1356970407
SAU,At Ta'if,21.2667,40.4167,no,579970,1682956102
PHL,San Jose del Monte,14.8139,121.0453,no,574089,1608850554
USA,Bakersfield,35.3529,-119.0359,no,579295,1840019148
USA,Ogden,41.2278,-111.9682,no,578523,1840020135
CHN,Xiulin,29.7211,112.4037,no,577022,1156284109
CHN,Fu'an,27.1,119.6333,no,577000,1156244234
ESP,Malaga,36.7167,-4.4167,no,574654,1724397372
RUS,Tomsk,56.4886,84.9522,no,572740,1643258928
IRN,Kerman,30.2833,57.0667,no,573449,1364554896
GBR,Kingston upon Hull,53.7444,-0.3325,no,573300,1826028894
EGY,Al Mahallah al Kubra,30.9667,31.1667,no,543271,1818406471
CHN,Luofeng,37.359,120.396,no,570898,1156158643
CHN,Lingyuan,41.2407,119.3957,no,570660,1156184681
USA,Baton Rouge,30.4418,-91.131,no,570308,1840013941
COL,Pereira,4.8104,-75.68,no,568750,1170386718
VEN,Ciudad Bolivar,8.1167,-63.55,no,567953,1862318264
IND,Durgapur,23.55,87.32,no,566517,1356045686
RUS,Orenburg,51.7667,55.1,no,564443,1643685056
CHN,Shenzhou,38.0005,115.5541,no,566087,1156921843
IND,Asansol,23.6833,86.9667,no,563917,1356093694
PHL,Bacolod,10.6765,122.9509,no,561875,1608244137
USA,Akron,41.0798,-81.5219,no,565208,1840000791
USA,New Haven,41.3112,-72.9246,no,564830,1840004850
CHN,Zhenzhou,32.2739,119.1619,no,564021,1156634387
IDN,Surakarta,-7.5667,110.8167,no,552118,1360853933
MEX,Tlajomulco de Zuniga,20.4736,-103.4431,no,549442,1484017493
CHN,Jieshou,33.2605,115.3618,no,561956,1156304827
CHN,Lanxi,29.2167,119.4722,no,560514,1156686465
IRN,Zahedan,29.4833,60.8667,no,560725,1364072353
CHN,Dangyang,30.8258,111.791,no,560000,1156585505
USA,Columbia,34.0376,-80.9037,no,560041,1840014730
RUS,Kemerovo,55.3333,86.0667,no,556920,1643216311
DEU,Dresden,51.0493,13.7384,no,555805,1276561036
NGA,Uyo,5.008,7.85,no,554906,1566061694
IND,Bhavnagar,21.765,72.1369,no,554978,1356982375
CHN,Luanzhou,39.7396,118.6978,no,554315,1156092104
MEX,Veracruz,19.1903,-96.1533,no,552156,1484992153
RUS,Novokuznetsk,53.75,87.1167,no,552105,1643628717
IND,Nellore,14.4333,79.9667,no,547621,1356280972
PER,Chiclayo,-6.763,-79.8366,no,552508,1604799615
YEM,Al Hudaydah,14.8022,42.9511,no,548433,1887984890
IRN,Eslamshahr,35.5333,51.2,no,548620,1364870126
AGO,Cabinda,-5.55,12.2,no,550000,1024474012
IND,Amravati,20.9333,77.75,no,549370,1356462099
CHN,Korla,41.7646,86.1527,no,549324,1156965620
CHN,Huanghua,38.371,117.3329,no,548507,1156131099
CHN,Xingcheng,40.6189,120.7205,no,546176,1156705922
CHN,Wancheng,18.8,110.4,no,545597,1156017483
CHN,Kaiyuan,42.538,124.0371,no,545624,1156081841
DEU,Leipzig,51.35,12.3833,no,542529,1276563678
CHN,Fengcheng,40.4543,124.0646,no,543933,1156519626
IND,Ajmer,26.468,74.639,no,542321,1356058258
CHN,Sihui,23.3448,112.6956,no,542873,1156609451
IND,Tinnevelly,8.7289,77.7081,no,542200,1356037155
CHN,Fuding,27.2,120.2,no,542000,1156530120
VEN,Maturin,9.7457,-63.1832,no,542259,1862546949
IRQ,An Nasiriyah,31.0539,46.2503,no,541600,1368273311
IRQ,Al Hillah,32.4833,44.4333,no,541034,1368916692
COL,Ibague,4.4378,-75.2006,no,541101,1170245063
DEU,Hannover,52.3744,9.7386,no,538068,1276457707
POL,Poznan,52.4,16.9167,no,538633,1616725607
RUS,Ryazan,54.6167,39.7167,no,537622,1643205787
CHN,Panshi,42.9392,126.0561,no,539804,1156659612
SDN,Kassala,15.45,36.4,no,536009,1729157224
CHN,Chang'an,29.4761,113.448,no,537500,1156139784
CHN,Wencheng,19.6167,110.75,no,537426,1156985313
CHN,Shashi,30.32,112.23,no,520000,1156254380
CHN,Aksu,41.1664,80.25,no,535657,1156436913
ARG,Salta,-24.7883,-65.4106,no,535303,1032926124
KOR,Kimhae,35.2342,128.8811,no,534124,1410836094
RUS,Astrakhan,46.3333,48.0167,no,532504,1643407929
CHN,Mingguang,32.7816,117.9899,no,532732,1156864248
RUS,Naberezhnyye Chelny,55.7,52.3333,no,529797,1643008493
BEL,Antwerp,51.2211,4.3997,no,529247,1056168623
IND,Bikaner,28.0181,73.3169,no,529007,1356026593
IND,Agartala,23.8333,91.2667,no,522613,1356148992
MEX,Xalapa,19.54,-96.9275,no,525147,1484334948
ZMB,Ndola,-12.9683,28.6337,no,528330,1894032745
IRN,Hamadan,34.8065,48.5162,no,528256,1364126377
COL,Villavicencio,4.1425,-73.6294,no,527668,1170426927
CHN,Ailan Mubage,43.9167,81.3167,no,526745,1156279608
MEX,Ensenada,31.8578,-116.6058,no,522768,1484714297
FRA,Lyon,45.76,4.84,no,516092,1250196189
VNM,Bac Ninh,21.1861,106.0763,no,520000,1704025181
MEX,Ciudad Apodaca,25.7833,-100.1833,no,523370,1484855080
VEN,Santa Teresa del Tuy,10.2333,-66.65,no,525321,1862528581
BRA,Londrina,-23.3,-51.18,no,520238,1076723241
RUS,Penza,53.2,45,no,523726,1643492830
MEX,Heroica Matamoros,25.8797,-97.5042,no,520367,1484614906
EGY,Port Said,31.25,32.2833,no,524433,1818628574
PAK,New Mirpur,33.1333,73.75,no,523500,1586007078
CHN,Yucheng,36.9329,116.6403,no,522878,1156530681
COL,Bello,6.33,-75.57,no,519670,1170423489
MAR,Meknes,33.8833,-5.55,no,520428,1504333193
DEU,Nuremberg,49.4528,11.0778,no,518365,1276166609
KOR,Pohang,36.0322,129.365,no,520305,1410983252
JPN,Utsunomiya,36.55,139.8833,no,519255,1392506125
CHN,Anda,46.4078,125.3252,no,520000,1156142150
CHN,Jinghong,22.0057,100.7948,no,519935,1156181533
CHN,Liaoyuan,42.8976,125.1381,no,506548,1156249772
USA,Mesa,33.4017,-111.718,no,518012,1840020566
CAN,Surrey,49.19,-122.8489,no,517887,1124001454
MEX,Cuautitlan Izcalli,19.65,-99.25,no,511675,1484282338
IND,Ujjain,23.1828,75.7772,no,515215,1356050735
COL,Santa Marta,11.2361,-74.2017,no,515556,1170715594
CHN,Beining,41.5933,121.7932,no,514898,1156424678
VNM,Hai Duong,20.9411,106.3331,no,507469,1704909566
HTI,Carrefour,18.5333,-72.4,no,511345,1332000098
BLR,Homyel',52.4417,30.9833,no,510300,1112580227
GBR,Leicester,52.6333,-1.1333,no,508916,1826431946
CHN,Yanji,42.9044,129.5067,no,513072,1156405468
AGO,Benguela,-12.55,13.4167,no,513000,1024141961
CHN,Yicheng,31.7117,112.2551,no,512530,1156742818
SAU,Tabuk,28.3972,36.5789,no,512629,1682590992
RUS,Lipetsk,52.6167,39.6,no,510439,1643772906
IND,Ulhasnagar,19.2167,73.15,no,506098,1356375341
JPN,Matsuyama,33.8333,132.7667,no,509139,1392220893
PHL,Muntinlupa City,14.3833,121.05,no,504509,1608473406
CHN,Kashgar,39.45,75.9833,no,506640,1156113193
CHN,Linghai,41.1676,121.3558,no,508079,1156081300
YEM,Aden,12.8,45.0333,no,507355,1887867886
IND,Jhansi,25.4486,78.5696,no,507000,1356712664
ZMB,Kitwe,-12.8208,28.2119,no,504194,1894321752
NGA,Aba,5.1167,7.3667,no,500183,1566262000
USA,Palm Bay,27.955,-80.6627,no,507002,1840015094
TWN,Pingtung,22.6761,120.4942,no,503530,1158209038
UZB,Samarkand,39.6542,66.9597,no,504423,1860388706
IND,Davangere,14.4667,75.9167,no,503564,1356445061
JPN,Ichikawa,35.7219,139.9311,no,495592,1392076347
IND,Jammu,32.7333,74.85,no,502197,1356491738
MEX,Mazatlan,23.22,-106.42,no,502547,1484841466
JPN,Higashi-osaka,34.6794,135.6008,no,494640,1392117396
NGA,Ile-Ife,7.4667,4.5667,no,501952,1566756897
RUS,Kirov,58.6,49.65,no,501468,1643106064
EGY,Madinat as Sadis min Uktubar,29.9361,30.9269,no,500000,1818735651
KAZ,Qaraghandy,49.8,73.1167,no,501129,1398274508
MEX,Mazatan,29.0167,-110.1333,no,500000,1484350756
DEU,Duisburg,51.4322,6.7611,no,498590,1276977172
UKR,Mykolaiv,46.9667,32,no,498748,1804398395
JPN,Matsudo,35.7878,139.9031,no,492671,1392642525
USA,Provo,40.2457,-111.6457,no,500617,1840020174
CHN,Meicheng,30.6412,116.5689,no,500292,1156136207
BRA,Niteroi,-22.8833,-43.1036,no,496696,1076501425
FRA,Rouen,49.4428,1.0886,no,494382,1250372069
MAR,Oujda-Angad,34.6867,-1.9114,no,494252,1504891036
MYS,Johor Bahru,1.4556,103.7611,no,497097,1458747615
USA,Worcester,42.2705,-71.8079,no,498328,1840000434
CHN,Hongjiang,27.1167,109.95,no,498100,1156039152
PER,Chimbote,-9.0745,-78.5936,no,497875,1604199858
CHN,Dengtacun,41.4237,123.3203,no,496122,1156096868
MEX,Ixtapaluca,19.3186,-98.8822,no,495563,1484452937
CHN,Zhijiang,30.4271,111.7506,no,495995,1156769646
CHN,Chengjiao,35.4043,114.0593,no,495744,1156571332
CHN,Beipiao,41.802,120.7621,no,496164,1156378599
USA,Murrieta,33.572,-117.1909,no,496046,1840020553
MYS,Kota Bharu,6.1333,102.25,no,491237,1458150101
CHN,Heshan,22.7697,112.9578,no,494938,1156013872
MEX,Ciudad Lopez Mateos,19.55,-99.2833,no,489937,1484363879
VNM,Vinh,18.6733,105.6922,no,490000,1704960059
MEX,Tultitlan de Mariano Escobedo,19.645,-99.1694,no,486998,1484562374
CHN,Duyun,26.2672,107.5143,no,493574,1156084618
CHN,Encheng,22.1879,112.3131,no,492814,1156653230
JPN,Nishinomiya-hama,34.7333,135.3333,no,487413,1392114116
AFG,Kandahar,31.6078,65.7053,no,491500,1004003059
RUS,Cheboksary,56.1333,47.25,no,489498,1643163382
CHN,Yuanping,38.7299,112.7134,no,491213,1156294277
SDN,Port Sudan,19.6158,37.2164,no,489275,1729710259
COL,Valledupar,10.4603,-73.2597,no,490075,1170481949
GBR,Edinburgh,55.953,-3.189,no,488050,1826492520
IND,Belgaum,15.8667,74.5,no,488157,1356390535
RUS,Tula,54.2,37.6167,no,485221,1643255206
CHN,Taozhou,30.8956,119.411,no,487243,1156438524
EGY,Suez,29.9667,32.5333,no,485342,1818495972
CHN,Shahe,36.8622,114.502,no,486329,1156690538
IRN,Yazd,31.8972,54.3678,no,486152,1364429875
ETH,Nazret,8.55,39.27,no,476892,1231826873
CHN,Gaoping,35.7911,112.9259,no,484862,1156238773
USA,Brookhaven,40.8321,-72.9518,no,484671,1840057464
USA,Greenville,34.8353,-82.3647,no,484465,1840013501
IRN,Arak,34.08,49.7,no,484212,1364624691
MEX,San Nicolas de los Garza,25.75,-100.2833,no,476761,1484264138
IND,Gulbarga,17.3333,76.8333,no,483615,1356091187
BRA,Juiz de Fora,-21.7642,-43.3503,no,470193,1076006144
CHN,Dunhua,43.3667,128.2333,no,483811,1156058709
BRA,Feira de Santana,-12.25,-38.97,no,481911,1076892244
CHN,Jiaji,19.2431,110.4642,no,483217,1156658217
JOR,Az Zarqa',32.0833,36.1,no,481300,1400161837
BRA,Americana,-22.7392,-47.3314,no,479472,1076922153
IRN,Ardabil,38.25,48.3,no,482632,1364437616
BGD,Sylhet,24.9,91.8667,no,479837,1050646703
USA,Wichita,37.6896,-97.3442,no,482249,1840001686
USA,Toledo,41.6639,-83.5822,no,482111,1840000572
CHN,Kaihua,23.3715,104.2437,no,481505,1156017759
GBR,Caerdydd,51.4833,-3.1833,no,479000,1826362422
IND,Jamnagar,22.47,70.07,no,479920,1356104995
CHN,Fuyuan,48.3614,134.2875,no,480000,1156196485
IND,Dhulia,20.9,74.7833,no,479073,1356224695
MOZ,Nampula,-15.1167,39.2667,no,477900,1508958445
IND,Gaya,24.75,85.0167,no,474093,1356045727
GRC,Piraeus,37.95,23.7,no,466065,1300458367
JPN,Oita,33.2333,131.6067,no,477701,1392081193
BRA,Florianopolis,-27.5933,-48.553,no,477798,1076190259
PAK,Chiniot,31.7167,72.9833,no,477781,1586413435
CHN,Jiannan,31.3446,104.1994,no,477868,1156155414
CHN,Wuhai,39.6708,106.8114,no,477000,1156575615
RUS,Kaliningrad,54.7167,20.5,no,475056,1643178106
PAK,Sukkur,27.6995,68.8673,no,476776,1586383591
CHN,Nangong,37.3606,115.3803,no,476096,1156426803
USA,Staten Island,40.5834,-74.1496,no,476143,1840034032
ARG,San Juan,-31.5375,-68.5364,no,471389,1032869625
BRA,Vila Velha,-20.3364,-40.2936,no,472762,1076404077
BRA,Macapa,0.033,-51.0653,no,474706,1076189884
USA,Des Moines,41.5725,-93.6105,no,473957,1840007069
PER,Piura,-5.2008,-80.6253,no,473025,1604331641
CHN,Jiaojiangcun,28.6804,121.45,no,471500,1156812073
CHN,Laohekou,32.3849,111.6695,no,471482,1156791804
CHN,Fujin,47.2489,132.0341,no,470000,1156404715
CHN,Beian,48.2395,126.5037,no,470000,1156084414
MEX,Celaya,20.5222,-100.8122,no,468469,1484979555
CHN,Xiaoyi,37.1449,111.7718,no,468770,1156910270
FRA,Strasbourg,48.5833,7.7458,no,465069,1250789140
ARG,Lanus,-34.7,-58.4,no,459263,1032009573
CHN,Qingzhen,26.5555,106.4646,no,467992,1156587033
CHN,Jiangshan,28.7412,118.6225,no,467862,1156346497
IRQ,Ba`qubah,33.7447,44.6436,no,467900,1368444902
GHA,Tamale,9.4075,-0.8533,no,466723,1288890688
POL,Gdansk,54.3667,18.6333,no,464254,1616406372
JPN,Kanazawa,36.5667,136.65,no,463873,1392684679
IDN,Manado,1.4931,124.8413,no,461636,1360771278
CHN,Jinchang,38.5168,102.1866,no,464200,1156184861
NGA,Calabar,4.95,8.325,no,461796,1566495489
JPN,Fukuyama,34.4858,133.3625,no,462203,1392551602
USA,Long Beach,33.7981,-118.1675,no,462628,1840020490
TUR,Malatya,38.3554,38.3337,no,461574,1792485155
VNM,Hue,16.4667,107.5833,no,455230,1704016023
IND,Jalgaon,21.0167,75.5667,no,460468,1356734842
USA,Port St. Lucie,27.2796,-80.3883,no,461152,1840015119
BRA,Maua,-23.6678,-46.4608,no,453286,1076477498
COL,Monteria,8.76,-75.8856,no,460223,1170855299
ISR,Tel Aviv-Yafo,32.0833,34.8,no,451523,1376401542
CHN,Xicheng,23.3629,103.1545,no,459781,1156161838
PHL,Marikina City,14.65,121.1,no,450741,1608000077
KOR,Pyeongtaek,36.9947,127.0889,no,457873,1410641095
IND,Kurnool,15.8222,78.035,no,457633,1356058372
TUN,Sfax,34.75,10.72,no,453050,1788741658
PHL,City of Calamba,14.2167,121.1667,no,454486,1608985581
USA,Denton,33.2176,-97.1419,no,457177,1840019390
IRQ,Ar Ramadi,33.4167,43.3,no,456853,1368838855
MYS,Melaka,2.1889,102.2511,no,455300,1458467506
BRA,Volta Redonda,-22.5196,-44.095,no,456362,1076343513
CHN,Jian'ou,27.0387,118.3215,no,456000,1156278784
CHN,Shenmu,38.8389,110.4896,no,455493,1156106796
CHN,Huadian,42.9688,126.7388,no,455339,1156018839
TWN,Taoyuan District,24.9889,121.3111,no,443273,1158127875
PHL,Iloilo,10.7167,122.5667,no,447992,1608875987
MYS,Kota Kinabalu,5.975,116.0725,no,452058,1458441859
CHN,Minzhu,43.7192,127.337,no,453265,1156295044
BGD,Rajshahi,24.3667,88.6,no,448087,1050547831
EGY,Tanta,30.7833,31,no,429503,1818501770
RUS,Balashikha,55.8,37.95,no,450771,1643989845
IND,Udaipur,24.5833,73.6833,no,451100,1356266094
RUS,Kursk,51.7372,36.1872,no,449063,1643011077
UKR,Mariupol,47.1306,37.5639,no,449498,1804630021
COD,Bukavu,-2.5,28.8667,no,436779,1180475821
TWN,Hsinchu,24.8047,120.9714,no,445635,1158276420
VEN,Barcelona,10.1333,-64.6833,no,448016,1862418619
DZA,Constantine,36.365,6.6147,no,448374,1012275076
CHN,Tanbei,35.0907,112.9317,no,447701,1156690688
NGA,Ado-Ekiti,7.6167,5.2167,no,446749,1566196391
TUR,Batman,37.8833,41.1333,no,447106,1792630786
PHL,Pasay City,14.55,121,no,416522,1608448280
USA,Madison,43.0826,-89.3931,no,447245,1840002915
CHN,Pingquan,41.0042,118.6848,no,446939,1156442510
CHN,Baisha,29.4774,119.2853,no,446000,1156988315
IND,Bellary,15.15,76.915,no,445388,1356209152
CUB,Santiago de Cuba,20.0283,-75.8206,no,444851,1192766111
CHN,Yongji,34.867,110.4417,no,444724,1156001205
USA,Reno,39.5497,-119.8483,no,445020,1840020121
CHN,Danjiangkou,32.5408,111.5098,no,443755,1156347994
TUR,Kahramanmaras,37.5875,36.9453,no,443575,1792726797
BRA,Sao Jose do Rio Preto,-20.82,-49.3789,no,442548,1076760827
UZB,Andijon,40.7,72.35,no,441700,1860445095
USA,Harrisburg,40.2752,-76.8843,no,442289,1840001288
FRA,Nancy,48.6936,6.1846,no,434565,1250925250
EGY,Al Mansurah,31.05,31.3833,no,439348,1818255319
JPN,Machida,35.5486,139.4467,no,434407,1392788615
CHN,Ning'an,44.3429,129.4621,no,440000,1156629205
MOZ,Beira,-19.8333,34.85,no,439264,1508407369
USA,Little Rock,34.7256,-92.3576,no,439815,1840015509
CHE,Zurich,47.3786,8.54,no,434008,1756539143
CHN,Zhangjiakou Shi Xuanhua Qu,40.5944,115.0243,no,409745,1156240430
PRK,Sunch'on,39.4167,125.9333,no,437000,1408510801
BRA,Diadema,-23.6858,-46.6228,no,412428,1076867279
CHN,Guangming,45.3357,122.7765,no,437559,1156955625
IND,Sangli,16.8667,74.5667,no,436639,1356921375
IND,Tuticorin,8.7833,78.1333,no,436094,1356751023
AFG,Herat,34.3738,62.1792,no,436300,1004237782
IDN,Kupang,-10.1633,123.5778,no,433970,1360696757
PAK,Larkana,27.56,68.2264,no,435817,1586678302
KOR,Jeju,33.5097,126.5219,no,435413,1410364424
IRN,Bandar `Abbas,27.2,56.25,no,435751,1364120623
BRA,Santos,-23.9608,-46.3339,no,433966,1076033299
RUS,Stavropol,45.05,41.9833,no,433577,1643947228
NGA,Katsina,12.9908,7.6017,no,432149,1566777297
IDN,Yogyakarta,-7.8014,110.3644,no,422732,1360384833
IND,Calicut,11.25,75.7667,no,431560,1356010401
IRN,Zanjan,36.6667,48.4833,no,433475,1364312712
ZAF,Welkom,-27.9831,26.7208,no,431944,1710480365
RUS,Ulan-Ude,51.8272,107.6064,no,431922,1643774900
USA,Oakland,37.7903,-122.2165,no,433031,1840020296
JPN,Kashiwa,35.8544,139.9689,no,429070,1392133166
AFG,Mazar-e Sharif,36.7,67.1167,no,427600,1004436363
IRN,Kashan,33.9833,51.4333,no,432557,1364006067
MAR,Kenitra,34.25,-6.5833,no,431282,1504534876
SAU,Khamis Mushayt,18.3,42.7333,no,430828,1682497044
KOR,Masan,35.1833,128.55,no,429612,1410394650
PER,Cusco,-13.5183,-71.9781,no,428450,1604162901
UKR,Sevastopol,44.6,33.5333,no,428753,1804806030
PHL,Mandaluyong City,14.5833,121.0333,no,386276,1608166320
KOR,Kihung,37.4167,127.1167,no,425184,1410396744
JPN,Toyota,35.0833,137.1567,no,426477,1392498272
IND,Akola,20.7333,77,no,425817,1356089496
CHN,Yan'an Beilu,44.0222,87.2961,no,426253,1156048097
MAR,Agadir,30.4167,-9.5833,no,421844,1504116858
BRA,Mogi das Cruzes,-23.5228,-46.1931,no,424633,1076857883
USA,Durham,35.9794,-78.9031,no,424700,1840013364
COD,Likasi,-10.9833,26.7333,no,422535,1180978192
CAN,Laval,45.5833,-73.75,no,422993,1124922301
USA,Winston-Salem,36.1029,-80.2611,no,422269,1840015324
KOR,Uijeongbu,37.7486,127.0389,no,421579,1410888678
RUS,Tver,56.8578,35.9219,no,419363,1643456559
TUR,Elazig,38.6667,39.2167,no,421726,1792156766
NGA,Akure,7.25,5.195,no,420594,1566568277
KOR,Kumi,36.21,128.3544,no,421075,1410638233
MMR,Hpa-An,16.8906,97.6333,no,421525,1104494124
USA,Bonita Springs,26.3559,-81.7861,no,421291,1840014227
CHN,Hailin,44.5735,129.3825,no,420000,1156267191
MYS,Seremban,2.7297,101.9381,no,419536,1458051507
JPN,Takamatsu,34.35,134.05,no,418772,1392427161
CHN,Lecheng,25.1307,113.3472,no,419500,1156612198
CHN,Zhengjiatun,43.513,123.5003,no,419529,1156759747
UKR,Luhansk,48.5833,39.3333,no,417990,1804688214
CHN,Pencheng,29.6792,115.6611,no,419047,1156147187
RUS,Magnitogorsk,53.3833,59.0333,no,418241,1643987830
PHL,Angeles City,15.1472,120.5847,no,411634,1608036027
SDN,El Obeid,13.1833,30.2167,no,418280,1729215531
CHN,Dalai,45.505,124.2863,no,418232,1156912899
CHN,Xingren,25.4352,105.1907,no,417919,1156533633
ESP,Palma,39.5667,2.6497,no,416065,1724728111
COD,Kolwezi,-10.7167,25.4667,no,418000,1180380965
CHN,Wenlan,23.3689,103.3881,no,417156,1156385754
USA,Indio,33.7346,-116.2346,no,417059,1840019304
USA,Palm Coast,29.5392,-81.246,no,417007,1840015064
TZA,Arusha,-3.3667,36.6833,no,416442,1834484937
CHN,Fenyang,37.2652,111.7793,no,416212,1156455704
JPN,Toyama,36.7,137.22,no,415816,1392000560
KOR,Paju,37.8328,126.8169,no,415345,1410365324
IDN,Mataram,-8.5833,116.1167,no,408900,1360021952
USA,Chattanooga,35.0657,-85.2488,no,415501,1840014569
PHL,Lapu-Lapu City,10.315,123.9761,no,408112,1608430676
CHN,Nagqu,31.4766,92.0569,no,414554,1156260844
KEN,Kisumu,-0.1,34.75,no,409928,1404511920
IDN,Jayapura,-2.5333,140.7167,no,413283,1360517692
CHN,Fangting,31.1282,104.1695,no,412758,1156384608
JPN,Nagasaki,32.7833,129.8667,no,411421,1392162566
USA,Spokane,47.6671,-117.433,no,412275,1840021093
PAK,Shekhupura,31.7083,74,no,411834,1586291726
RUS,Sochi,43.5853,39.7203,no,411524,1643009782
IND,Bhagalpur,25.25,87.0167,no,410210,1356760990
BRA,Ipatinga,-19.4796,-42.52,no,407894,1076484921
RUS,Ivanovo,57,41,no,406933,1643297945
NGA,Osogbo,7.7667,4.5667,no,408245,1566395088
PHL,Imus,14.4297,120.9367,no,403785,1608802508
MEX,Ciudad Obregon,27.4939,-109.9389,no,405000,1484887986
TKM,Turkmenabat,39.1,63.5667,no,408906,1795079064
UZB,Namangan,40.9953,71.6725,no,408500,1860894033
RUS,Bryansk,53.25,34.3667,no,406553,1643208827
CHN,Basuo,19.1,108.65,no,408309,1156260069
CHN,Taiping,32.0691,108.0351,no,407594,1156077074
VEN,Maracay,10.2469,-67.5958,no,407109,1862284350
ESP,Murcia,37.9866,-1.1415,no,406807,1724107739
CHN,Jiexiu,37.0282,111.9103,no,406517,1156275703
UGA,Mbale,1.0806,34.175,no,402368,1800265900
KAZ,Taraz,42.8833,71.3667,no,406262,1398626276
EGY,Asyut,27.1869,31.1714,no,389307,1818456592
ARG,Santa Fe,-31.6333,-60.7,no,405683,1032817575
BRA,Campina Grande,-7.2306,-35.8811,no,405072,1076218697
POL,Szczecin,53.4247,14.5553,no,403833,1616256546
CHN,Ghulja,43.9,81.35,no,403489,1156064979
USA,Syracuse,43.0409,-76.1438,no,404223,1840000378
BRA,Carapicuiba,-23.5228,-46.8358,no,392294,1076874103
JPN,Gifu,35.4167,136.7667,no,401534,1392097787
IND,Quilon,8.8853,76.5864,no,397419,1356304110
BRA,Jundiai,-23.1864,-46.8842,no,401896,1076998392
USA,Lancaster,40.0421,-76.3012,no,401524,1840003718
NLD,Eindhoven,51.43,5.5,no,398053,1528636212
IND,Sikar,27.6119,75.1397,no,400000,1356163729
IND,Tumkur,13.33,77.1,no,399606,1356033724
CHN,Jiangjiafan,31.0304,112.1,no,400000,1156352568
JPN,Miyazaki,31.9167,131.4167,no,398307,1392216224
USA,Arlington,32.6998,-97.125,no,398854,1840019422
USA,Stockton,37.9765,-121.3109,no,397264,1840021517
IND,Bhatpara,22.8667,88.4167,no,386019,1356022456
MYS,Sandakan,5.8388,118.1173,no,396290,1458405180
CHN,Hejin,35.5914,110.706,no,395527,1156225234
VNM,Thanh Hoa,19.8075,105.7764,no,393294,1704016079
IND,Muzaffarnagar,29.4708,77.7033,no,392451,1356592356
USA,Poughkeepsie,41.6949,-73.921,no,394760,1840000500
BGD,Comilla,23.4704,91.17,no,389411,1050609330
FRA,Metz,49.1203,6.1778,no,391187,1250778717
BRA,Campos,-21.7523,-41.3304,no,387417,1076606365
VNM,Nha Trang,12.25,109.1833,no,392279,1704497901
RUS,Belgorod,50.6,36.6,no,391135,1643407900
NGA,Yola,9.2,12.4833,no,392854,1566782065
JPN,Minamisuita,34.7667,135.5167,no,381829,1392948850
PRY,San Lorenzo,-25.3431,-57.5094,no,387977,1600667303
IRQ,Ad Diwaniyah,31.9892,44.9247,no,391600,1368864006
CHN,Hancheng,35.4603,110.4292,no,391164,1156265838
CHN,Fuyu,45.1804,124.82,no,356905,1156595629
ITA,Bologna,44.4939,11.3428,no,388367,1380202039
CHN,Karamay,45.5928,84.8711,no,391008,1156892128
IND,Kakinada,16.9333,82.2167,no,384182,1356573609
USA,Augusta,33.3645,-82.0708,no,390809,1840029462
IND,Bhilwara,25.35,74.6333,no,389911,1356077831
BRA,Caxias do Sul,-29.18,-51.17,no,381270,1076809957
CHN,Tieli,46.9804,128.045,no,390000,1156769379
IDN,Cilegon,-6.0027,106.0112,no,387543,1360643410
CHN,Baicheng,45.6148,122.832,no,386861,1156435764
IND,Nizamabad,18.6704,78.1,no,388505,1356242168
USA,Boise,43.6007,-116.2312,no,389280,1840027142
MEX,Tonala,20.6167,-103.2333,no,374258,1484750897
JPN,Okazaki,34.95,137.1667,no,387294,1392862345
TZA,Mwanza,-2.5167,32.9,no,385810,1834011288
KAZ,Aqtobe,50.3,57.1667,no,387807,1398602716
BGR,Plovdiv,42.1433,24.7489,no,384088,1100436706
USA,Oxnard,34.1963,-119.1815,no,387647,1840020474
MAR,Tetouan,35.5667,-5.3667,no,380787,1504709141
ITA,Florence,43.7714,11.2542,no,382258,1380726561
SAU,Ha'il,27.5236,41.7001,no,385257,1682249750
CHN,Yidu,30.388,111.4505,no,384598,1156230664
CHN,Lianzhou,24.7868,112.3735,no,384700,1156020454
USA,Scranton,41.4044,-75.6649,no,384250,1840003389
CAN,London,42.9836,-81.2497,no,383822,1124469960
ESP,Las Palmas,28.1272,-15.4314,no,379925,1724501748
BRA,Rio Branco,-9.9781,-67.8117,no,383443,1076391263
USA,Modesto,37.6374,-121.0028,no,383134,1840020287
JPN,Ichinomiya,35.3039,136.8031,no,379689,1392379530
CZE,Brno,49.1953,16.6083,no,381346,1203676514
USA,Kissimmee,28.3042,-81.4164,no,382720,1840015109
COL,Pasto,1.2136,-77.2811,no,382236,1170320545
IRN,Qazvin,36.2688,50.0041,no,381598,1364073420
MEX,Irapuato,20.6667,-101.35,no,380941,1484625454
SRB,Novi Sad,45.2644,19.8317,no,380000,1688169087
CHL,Antofagasta,-23.6464,-70.398,no,380695,1152734289
CHN,Shihezi,44.3,86.0333,no,380130,1156232270
CHN,Shache,38.4261,77.25,no,373492,1156278934
IND,Panihati,22.69,88.37,no,377347,1356118632
PER,Huancayo,-12.0667,-75.2167,no,378203,1604249985
USA,Aurora,39.7087,-104.7273,no,379289,1840018794
PHL,Malabon,14.6625,120.9567,no,365525,1608045841
IND,Parbhani,19.2704,76.76,no,378326,1356632842
SLV,Usulutan,13.35,-88.45,no,378606,1222984157
USA,Youngstown,41.0993,-80.6463,no,378732,1840003563
NZL,Christchurch,-43.5309,172.6365,no,377200,1554377228
TUR,Hatay,36.2,36.15,no,377793,1792115763
PER,Iquitos,-3.7333,-73.25,no,377609,1604493809
TUR,Sivas,39.75,37.0167,no,377561,1792938326
CHN,Helixi,30.6267,118.9861,no,376857,1156734041
ESP,A Coruna,43.3713,-8.4188,no,370610,1724417375
COL,Manizales,5.06,-75.52,no,375848,1170930654
NZL,Manukau City,-36.9833,174.8833,no,375600,1554797148
GBR,Stoke-on-Trent,53,-2.1833,no,372775,1826799578
VEN,Cumana,10.45,-64.1667,no,374706,1862583279
UKR,Vinnytsia,49.2372,28.4672,no,371855,1804658571
IND,Rohtak,28.9,76.5667,no,374292,1356162915
IND,Latur,18.4004,76.57,no,374394,1356918265
JPN,Toyohashi,34.7667,137.3833,no,373234,1392482960
IRN,Sanandaj,35.3097,46.9989,no,373987,1364178783
MEX,Nuevo Laredo,27.4861,-99.5069,no,373725,1484597234
CHN,Anguo,38.4177,115.3204,no,370317,1156172518
IDN,Ambon,-3.705,128.17,no,372249,1360756802
PHL,Mandaue City,10.3333,123.9333,no,362654,1608794590
TWN,Keelung,25.1283,121.7419,no,370155,1158820647
BGR,Varna,43.2078,27.9169,no,369162,1100789115
CHN,Lengshuijiang,27.6858,111.4279,no,370300,1156002852
IND,Rajapalaiyam,9.4204,77.58,no,369991,1356110350
JPN,Nagano,36.6486,138.1928,no,370057,1392603439
IRQ,Az Zubayr,30.3892,47.7081,no,370000,1368147923
SAU,Al Qatif,26.5196,50.0115,no,368892,1682001245
MEX,Cuernavaca,18.9186,-99.2342,no,366321,1484926471
CHN,Sanya,18.2536,109.5019,no,362689,1156373900
MEX,Nicolas Romero,19.5833,-99.3667,no,366602,1484589606
CHN,Huichang,34.9136,112.7852,no,367113,1156035769
BLR,Vitsyebsk,55.1833,30.1667,no,364800,1112480679
BRA,Bauru,-22.3147,-49.0606,no,366992,1076905338
DEU,Bochum,51.4833,7.2167,no,364628,1276227288
BRA,Anapolis,-16.3269,-48.9528,no,366491,1076208869
GBR,Coventry,52.4081,-1.5106,no,362690,1826979198
CHN,Zalantun,48.0033,122.7365,no,366323,1156280237
MEX,Tecamac,19.7131,-98.9683,no,364579,1484363321
PAK,Jhang City,31.2681,72.3181,no,365198,1586288677
MEX,Ciudad General Escobedo,25.7933,-100.1583,no,363436,1484345554
PRK,Wonsan,39.1475,127.4461,no,363127,1408692125
TUR,Kocaeli,40.7656,29.9406,no,363416,1792965114
IDN,Bengkulu,-3.7956,102.2592,no,360495,1360191448
BRA,Montes Claros,-16.7322,-43.8636,no,361915,1076113275
HTI,Petion-Ville,18.5098,-72.2856,no,359615,1332051873
CHN,Shuanghejiedao,30.3866,106.7756,no,360000,1156052635
POL,Bydgoszcz,53.1167,18,no,358614,1616454014
RUS,Surgut,61.25,73.4333,no,360590,1643007475
ESP,Donostia,43.3204,-1.98,no,357468,1724910555
BFA,Bobo-Dioulasso,11.1833,-4.2833,no,360106,1854348796
NGA,Umuahia,5.5333,7.4833,no,359230,1566217980
SDN,Gedaref,14.0333,35.3833,no,354927,1729215057
IDN,Palu,-0.895,119.8594,no,359350,1360518272
PHL,Santa Rosa,14.3167,121.1167,no,353767,1608571683
NPL,Pokhara,28.2097,83.9853,no,353841,1524416084
BLR,Mahilyow,53.9089,30.343,no,357100,1112518993
CHN,Wudalianchi,48.6433,126.1408,no,360000,1156059331
MYS,Sungai Petani,5.65,100.48,no,358499,1458639918
VNM,Nam Dinh,20.42,106.1683,no,352108,1704906277
PRK,Sinuiju,40.1,124.4,no,359341,1408740449
BLR,Hrodna,53.6667,23.8167,no,356900,1112187197
RUS,Vladimir,56.1333,40.4167,no,356168,1643712167
BRA,Sao Vicente,-23.9633,-46.3922,no,355542,1076857089
JPN,Wakayama,34.2333,135.1667,no,355825,1392907296
CHN,Yong'an,25.9733,117.3593,no,357000,1156185328
BRA,Itaquaquecetuba,-23.4864,-46.3486,no,352801,1076942224
DEU,Wuppertal,51.2667,7.1833,no,354382,1276004611
MEX,Minatitlan,17.9833,-94.55,no,356020,1484735713
RUS,Nizhniy Tagil,57.9167,59.9667,no,355693,1643992310
JPN,Nara,34.6833,135.7833,no,353989,1392520831
CHN,Hongzhai,35.0476,104.6394,no,355037,1156905289
ESP,Bilbao,43.2622,-2.9533,no,346843,1724331267
NLD,Haarlem,52.3804,4.63,no,349957,1528822178
KAZ,Pavlodar,52.3156,76.9564,no,353930,1398790087
KOR,Gimpo,37.6236,126.7142,no,352683,1410797548
PAK,Rahimyar Khan,28.4202,70.2952,no,353203,1586136399
TUR,Van,38.5019,43.4167,no,353419,1792940471
ARG,Corrientes,-27.4833,-58.8167,no,352646,1032173097
PHL,San Pedro,14.3583,121.0583,no,325809,1608848483
RUS,Arkhangelsk,64.55,40.5333,no,351488,1643797198
CHN,Licheng,24.4935,110.3902,no,352472,1156208986
VEN,Cabimas,10.4,-71.4333,no,351735,1862398719
CHN,Yakeshi,49.2842,120.7283,no,352173,1156666223
PHL,Baguio City,16.4152,120.5956,no,345366,1608164766
IND,Ahmadnagar,19.0833,74.7333,no,350859,1356972679
USA,Fayetteville,36.0713,-94.166,no,351246,1840013368
JPN,Koshigaya,35.8911,139.7908,no,345458,1392606124
CUB,Holguin,20.8883,-76.2558,no,350191,1192920574
UZB,Qo`qon,40.5404,70.94,no,350000,1860403462
USA,Anaheim,33.839,-117.8572,no,350365,1840019322
CHN,Yingmen,39.83,97.73,no,350000,1156386711
BRA,Piracicaba,-22.725,-47.6489,no,342209,1076166252
IRN,Khorramabad,33.4667,48.35,no,348216,1364548806
IND,Rajahmundry,16.9833,81.7833,no,341831,1356831716
RUS,Chita,52.0333,113.5,no,347088,1643036673
IRN,Sari,36.5658,53.0597,no,347402,1364501878
UKR,Makiivka,48.0556,37.9611,no,347376,1804926154
ZWE,Chitungwiza,-18,31.1,no,340360,1716688236
USA,Pensacola,30.4427,-87.1886,no,346921,1840015005
USA,Victorville,34.5277,-117.3536,no,346789,1840021731
JPN,Tokorozawa,35.7994,139.4689,no,341409,1392340764
PRK,Tanch'on,40.458,128.911,no,345876,1408940912
AZE,Sumqayit,40.5917,49.6397,no,341200,1031630283
SDN,Kusti,13.17,32.66,no,345068,1729229371
IRQ,Al `Amarah,31.8416,47.1512,no,345007,1368336235
IND,Cuddapah,14.4667,78.8167,no,344893,1356360140
UKR,Simferopol,44.9484,34.1,no,341799,1804665958
PHL,Tarlac City,15.4802,120.5979,no,342493,1608237027
USA,Lancaster,34.6935,-118.1753,no,343304,1840020516
USA,Greensboro,36.0956,-79.8269,no,343090,1840013356
PHL,Iligan,8.2333,124.25,no,342618,1608000268
ZAF,East London,-33.0153,27.9116,no,338627,1710178149
JPN,Otsu,35.0167,135.85,no,342175,1392164106
BRA,Franca,-20.5389,-47.4008,no,342112,1076740256
RUS,Kaluga,54.5333,36.2667,no,341892,1643161747
KOR,Yeosu,34.7368,127.7458,no,341994,1410002025
USA,Corpus Christi,27.726,-97.3755,no,342464,1840019718
IND,Muzaffarpur,26.12,85.3833,no,333200,1356897425
POL,Lublin,51.2333,22.5667,no,339850,1616953501
BLR,Brest,52.0847,23.6569,no,339700,1112896927
CHN,Lianran,24.9211,102.4778,no,341341,1156332794
IND,Alwar,27.5667,76.6167,no,341422,1356570855
CHN,Baishan,41.9377,126.4179,no,330000,1156960624
JPN,Kawagoe,35.9177,139.4911,no,337931,1392825080
UZB,Farg`ona,40.3864,71.7864,no,340600,1860479627
JPN,Tamuramachi-moriyama,37.41,140.38,no,340560,1392675180
IND,Brahmapur,19.32,84.8,no,324726,1356569354
VNM,Buon Ma Thuot,12.6667,108.05,no,340000,1704542086
PHL,Binan,14.3333,121.0833,no,333028,1608039268
JPN,Iwaki,37.0333,140.8833,no,340231,1392158088
KAZ,Semey,50.4111,80.2275,no,340000,1398405657
TUR,Tarsus,36.9167,34.9,no,339676,1792003860
ZAF,Randburg,-26.0936,28.0064,no,337053,1710279034
MEX,Tepic,21.5083,-104.8931,no,332863,1484433877
NPL,Jitpur,27.6666,85.3333,no,337785,1524593184
PRK,Kaesong,37.964,126.5644,no,338155,1408725697
COD,Beni,0.5,29.4667,no,332903,1180325051
KOR,Chinju,35.1928,128.0847,no,337230,1410560599
CHN,Tangdong,25.9755,113.2302,no,337495,1156682620
PHL,Butuan,8.9534,125.5288,no,337063,1608000722
GBR,Reading,51.4542,-0.9731,no,337108,1826869043
GBR,Belfast,54.5964,-5.93,no,333871,1826325087
ESP,Alicante,38.3453,-0.4831,no,334887,1724923163
DZA,Blida,36.4722,2.8333,no,331779,1012045589
CHN,Hangu,39.232,117.777,no,332793,1156202457
CHN,Yingzhong,32.2381,119.8133,no,334977,1156969537
CHL,Vina del Mar,-33.0244,-71.5517,no,332875,1152898644
JPN,Asahikawa,43.7706,142.365,no,334692,1392380358
DEU,Bielefeld,52.0167,8.5333,no,333786,1276112885
ECU,Cuenca,-2.8974,-79.0045,no,329928,1218041020
USA,Fort Wayne,41.0886,-85.1437,no,334122,1840008261
JPN,Maebashi,36.3833,139.0667,no,332999,1392333295
PHL,Lipa City,13.9411,121.1622,no,332386,1608615113
SDN,Wad Medani,14.4,33.51,no,332714,1729581572
USA,Islip,40.7384,-73.1887,no,332862,1840058203
TUN,Sousse,35.83,10.625,no,327004,1788927583
IND,Kamarhati,22.67,88.37,no,330211,1356676559
GRC,Thessaloniki,40.6333,22.95,no,315196,1300397999
AZE,Ganca,40.6828,46.3606,no,331400,1031197327
IND,Bilaspur,22.15,82.0167,no,331030,1356820491
USA,Santa Ana,33.7366,-117.8819,no,332318,1840021964
BGD,Mymensingh,24.7504,90.38,no,330126,1050399881
EGY,Al Fayyum,29.3,30.8333,no,315940,1818281002
USA,Flint,43.0235,-83.6922,no,332190,1840002949
IDN,Kendari,-3.9675,122.5947,no,331013,1360992102
TUR,Balikesir,39.6511,27.8842,no,331788,1792020804
EGY,Az Zaqaziq,30.5667,31.5,no,302840,1818017750
VNM,Thai Nguyen,21.6,105.85,no,330000,1704613715
RUS,Smolensk,54.7828,32.0453,no,329853,1643627051
KOR,Wonju,37.3417,127.9208,no,330854,1410782685
BRA,Maringa,-23.4095,-51.93,no,328335,1076013378
PRI,San Juan,18.4037,-66.0636,no,331165,1630035577
IRQ,Dahuk,36.85,42.9833,no,330600,1368137126
PHL,Batangas,13.75,121.05,no,329874,1608417616
IND,Mathura,27.4833,77.6833,no,330511,1356066081
BRA,Pelotas,-31.75,-52.33,no,320674,1076815692
CHN,Bamiantong,44.9164,130.5212,no,330000,1156971194
JPN,Kochi,33.5667,133.5333,no,328930,1392086071
IND,Patiala,30.3204,76.385,no,329224,1356458416
PAK,Gujrat,32.5736,74.0789,no,328512,1586006990
DEU,Bonn,50.7339,7.0997,no,327258,1276807850
VNM,Vung Tau,10.4042,107.1417,no,327000,1704581438
CAN,Markham,43.8767,-79.2633,no,328966,1124272698
IND,Saugor,23.8504,78.75,no,328240,1356781800
ZAF,Roodepoort,-26.1625,27.8725,no,326416,1710090212
MEX,Gomez Palacio,25.5611,-103.4983,no,327985,1484092318
RUS,Volzhskiy,48.7833,44.7667,no,326055,1643875527
ITA,Bari,41.1253,16.8667,no,325183,1380991126
IND,Bijapur,16.8244,75.7154,no,327427,1356499139
IDN,Sukabumi,-6.9197,106.9272,no,320970,1360447543
CHN,Ulanhot,46.0726,122.0719,no,327081,1156182060
USA,Fayetteville,35.0846,-78.9776,no,327435,1840013490
BRA,Itajai,-26.8996,-48.68,no,327126,1076348188
KEN,Nakuru,-0.2833,36.0667,no,307990,1404140179
CHN,Yunzhong,39.8143,113.0946,no,326849,1156589240
IRQ,Al Fallujah,33.35,43.7833,no,326471,1368081888
BRA,Boa Vista,2.82,-60.6719,no,326419,1076621300
ROU,Cluj-Napoca,46.78,23.5594,no,324576,1642503974
SWE,Malmo,55.5932,13.0214,no,321845,1752705818
KOR,Gwangmyeongni,37.4772,126.8664,no,318021,1410103113
PER,Pucallpa,-8.3833,-74.55,no,326040,1604478712
ESP,Cordoba,37.8833,-4.7667,no,325701,1724706440
MYS,Kuching,1.5397,110.3542,no,325132,1458462262
NER,Zinder,13.8,8.9833,no,322935,1562758258
JPN,Naha,26.2122,127.6789,no,317606,1392583118
ETH,Gonder,12.6,37.4667,no,323900,1231234833
BRA,Uberaba,-19.7478,-47.9319,no,325279,1076230331
USA,Jackson,32.3163,-90.2124,no,325350,1840014895
ETH,Mekele,13.4833,39.4667,no,323700,1231468531
IND,Kulti,23.73,86.85,no,313809,1356058458
USA,Santa Rosa,38.4458,-122.7067,no,324634,1840021488
HTI,Gonaives,19.45,-72.6833,no,324043,1332384588
USA,Lansing,42.7142,-84.5601,no,324286,1840003102
CHN,Binxian,35.0364,108.0764,no,323256,1156167534
AUS,Newcastle,-32.9167,151.75,no,322278,1036468001
RUS,Kurgan,55.4408,65.3411,no,322042,1643201853
CHN,Kaiyuan,23.7147,103.2585,no,322693,1156888008
MAR,Temara,33.9234,-6.9076,no,313510,1504016606
MEX,Uruapan,19.4208,-102.0628,no,315350,1484051478
CHN,Hotan,37.1012,79.9327,no,322300,1156111844
CUB,Camaguey,21.3786,-77.9186,no,321992,1192667983
USA,Ann Arbor,42.2755,-83.7312,no,322267,1840003172
ARG,San Salvador de Jujuy,-24.1856,-65.2994,no,321789,1032815808
ROU,Timisoara,45.7597,21.23,no,319279,1642603121
IRQ,Al Kut,32.4907,45.8304,no,321521,1368569694
MEX,Tapachula,14.9,-92.2667,no,320451,1484997178
IND,Shahjanpur,27.8804,79.905,no,320434,1356415439
RUS,Cherepovets,59.1333,37.9167,no,318856,1643937680
UKR,Poltava,49.5744,34.5686,no,317847,1804547489
USA,Henderson,36.0133,-115.038,no,320189,1840020361
CMR,Maroua,10.5823,14.3275,no,319941,1120956931
PRK,Kaech'on,39.6986,125.9061,no,319554,1408781295
KOR,Asan,36.35,126.9167,no,319929,1410904940
MEX,Coatzacoalcos,18.15,-94.4333,no,319187,1484016854
USA,Huntsville,34.6988,-86.6412,no,319249,1840005061
IND,Trichur,10.52,76.21,no,315596,1356589298
PHL,General Trias,14.3833,120.8833,no,314303,1608826995
IDN,Cirebon,-6.7167,108.5667,no,316126,1360011375
MEX,Tampico,22.2553,-97.8686,no,314418,1484060031
USA,Lexington,38.0423,-84.4587,no,317110,1840015211
NIC,Boaco,12.4722,-85.6586,no,317000,1558023610
KAZ,Oskemen,49.95,82.6167,no,316699,1398371414
VNM,Ca Mau,9.1833,105.15,no,315270,1704320474
COL,Neiva,2.9275,-75.2875,no,316033,1170159963
PHL,Cabuyao,14.275,121.125,no,308745,1608604441
RUS,Vologda,59.2167,39.9,no,313012,1643013685
RUS,Saransk,54.1833,45.1833,no,314789,1643003229
USA,Mobile,30.6783,-88.1162,no,315502,1840006009
SSD,Bor,6.2167,31.55,no,315351,1728186782
DEU,Munster,51.9625,7.6256,no,314319,1276714504
IND,Barddhaman,23.25,87.85,no,314265,1356062166
MAR,Ksar El Kebir,35.0204,-5.91,no,306600,1504230428
DEU,Karlsruhe,49.0167,8.4,no,313092,1276923210
PAK,Kasur,31.1167,74.45,no,314617,1586858135
CHN,Yakou,33.2937,113.5203,no,313828,1156326854
RUS,Orel,52.9686,36.0694,no,311625,1643703818
MAR,Safi,32.2833,-9.2333,no,308508,1504000717
IRN,Shahr-e Qods,35.7214,51.1089,no,309605,1364272235
BRA,Vitoria da Conquista,-14.8661,-40.8394,no,308204,1076812020
SYR,Hamah,35.1333,36.75,no,312994,1760197502
BRA,Guaruja,-23.9936,-46.2564,no,311230,1076832747
ITA,Catania,37.5027,15.0873,no,311584,1380562508
IND,Purnea,25.78,87.47,no,310817,1356486511
USA,Fort Collins,40.5478,-105.0656,no,312666,1840020151
ZAF,Port Elizabeth,-33.9581,25.6,no,312392,1710918997
TUR,Alanya,36.5436,31.9997,no,312319,1792233416
USA,Asheville,35.5704,-82.5536,no,312507,1840013411
